[{"name":"まいばすけっと青戸7丁目店","prefecture_id":13,"address":"葛飾区青戸7-19-14","address2":"葛貨協会館","latitude":"35.753826","longitude":"139.855262","phone_number":"03-5629-5870","place_type":1}, {"name":"まいばすけっと飯田橋駅北店","prefecture_id":13,"address":"文京区後楽2-6-1","address2":"住友不動産飯田橋ファーストタワー","latitude":"35.705226","longitude":"139.745054","phone_number":"03-3830-1735","place_type":1}, {"name":"まいばすけっと神田駅西店","prefecture_id":13,"address":"千代田区内神田1-18-14","address2":"ヨシザワビル","latitude":"35.691548","longitude":"139.766994","phone_number":"03-5283-7575","place_type":1}, {"name":"まいばすけっと神田佐久間町店","prefecture_id":13,"address":"千代田区神田佐久間町3-21-5","address2":"東神田ビル","latitude":"35.698072","longitude":"139.778491","phone_number":"03-5825-7760","place_type":1}, {"name":"まいばすけっと神田神保町店","prefecture_id":13,"address":"千代田区神田神保町2-40-5","address2":"東久ビル","latitude":"35.697844","longitude":"139.755512","phone_number":"03-3556-0381","place_type":1}, {"name":"まいばすけっと環七東葛西2丁目店","prefecture_id":13,"address":"江戸川区東葛西2-5-3","address2":"メゾン佐久間","latitude":"35.670292","longitude":"139.875227","phone_number":"03-5679-6535","place_type":1}, {"name":"まいばすけっと環八蒲田4丁目店","prefecture_id":13,"address":"大田区蒲田4-44-10","address2":"レジディア蒲田IV","latitude":"35.558451","longitude":"139.721257","phone_number":"03-5713-9378","place_type":1}, {"name":"まいばすけっと環八蒲田5丁目店","prefecture_id":13,"address":"大田区蒲田5-49-3","address2":"須山ビルエンゼルハイム蒲田","latitude":"35.559269","longitude":"139.717746","phone_number":"03-5711-8866","place_type":1}, {"name":"まいばすけっと北烏山3丁目店","prefecture_id":13,"address":"世田谷区北烏山3-5-9","address2":"日栄ビル","latitude":"35.672548","longitude":"139.600298","phone_number":"03-5315-5447","place_type":1}, {"name":"まいばすけっと北沢4丁目店","prefecture_id":13,"address":"世田谷区北沢4-3-1","address2":"内田ビル","latitude":"35.666942","longitude":"139.671876","phone_number":"03-5738-2981","place_type":1}, {"name":"まいばすけっと北品川店","prefecture_id":13,"address":"品川区北品川5-8-15","address2":"北品川ホームズ","latitude":"35.620139","longitude":"139.732433","phone_number":"03-5789-0262","place_type":1}, {"name":"まいばすけっと北品川1丁目店","prefecture_id":13,"address":"品川区北品川1-24-14","address2":"越前屋ビル","latitude":"35.620883","longitude":"139.740832","phone_number":"03-5781-9301","place_type":1}, {"name":"まいばすけっと池上駅前店","prefecture_id":13,"address":"大田区池上6-2-26","address2":"サンライズ池上","latitude":"35.572436","longitude":"139.701869","phone_number":"03-5747-3061","place_type":1}, {"name":"まいばすけっと北新宿1丁目店","prefecture_id":13,"address":"新宿区北新宿1-1-10","address2":"岩田ビル","latitude":"35.698451","longitude":"139.696672","phone_number":"03-5332-8725","place_type":1}, {"name":"まいばすけっと北新宿3丁目店","prefecture_id":13,"address":"新宿区北新宿3-1-4","address2":null,"latitude":"35.702197","longitude":"139.694492","phone_number":"03-5348-5815","place_type":1}, {"name":"まいばすけっと北新宿税務署通り4/22（金）オープン","prefecture_id":13,"address":"新宿区北新宿1-20-13","address2":"アーバネックス西新宿","latitude":"35.697587","longitude":"139.69342","phone_number":"03-5337-4071","place_type":1}, {"name":"まいばすけっと北砂丸八通り店","prefecture_id":13,"address":"江東区北砂4-41-8","address2":"ディ・リエネッソ","latitude":"35.678806","longitude":"139.8343","phone_number":"03-5633-9040","place_type":1}, {"name":"まいばすけっと北砂4丁目店","prefecture_id":13,"address":"江東区北砂4-26-4","address2":"野村ビル","latitude":"35.679834","longitude":"139.833161","phone_number":"03-5633-7022","place_type":1}, {"name":"まいばすけっと北千束駅前店","prefecture_id":13,"address":"大田区北千束2-32-5","address2":null,"latitude":"35.60737","longitude":"139.692692","phone_number":"03-5754-5305","place_type":1}, {"name":"まいばすけっと北馬込店","prefecture_id":13,"address":"大田区北馬込1-30-1","address2":"ニュー馬込ハウス1階","latitude":"35.599685","longitude":"139.707613","phone_number":"03-5743-7308","place_type":1}, {"name":"まいばすけっと北馬込2丁目店","prefecture_id":13,"address":"大田区北馬込2-54-15","address2":"鈴木屋ビル","latitude":"35.60071","longitude":"139.712002","phone_number":"03-5709-7705","place_type":1}, {"name":"まいばすけっと砧店","prefecture_id":13,"address":"世田谷区砧4-10-15","address2":"砧セントラルヒルズ","latitude":"35.640164","longitude":"139.612976","phone_number":"03-5727-9507","place_type":1}, {"name":"まいばすけっと砧6丁目店","prefecture_id":1,"address":"東京都世田谷区砧6-29-5","address2":"レオネクスト砧プレミア","latitude":"35.641042","longitude":"139.608307","phone_number":"03-5727-0215","place_type":1}, {"name":"まいばすけっと池上6丁目店","prefecture_id":13,"address":"大田区池上6-19-1","address2":null,"latitude":"35.570322","longitude":"139.703955","phone_number":"03-5748-5029","place_type":1}, {"name":"まいばすけっと経堂1丁目店","prefecture_id":13,"address":"世田谷区経堂1-26-14","address2":"アイレックスビル","latitude":"35.648163","longitude":"139.63584","phone_number":"03-5426-3611","place_type":1}, {"name":"まいばすけっと経堂2丁目店 ","prefecture_id":13,"address":"世田谷区経堂2-31-21","address2":null,"latitude":"35.654765","longitude":"139.630915","phone_number":"03-5451-5138","place_type":1}, {"name":"まいばすけっと経堂4丁目店 ","prefecture_id":13,"address":"世田谷区経堂4-6-3","address2":"経堂パレス","latitude":"35.646443","longitude":"139.624928","phone_number":"03-5451-5182","place_type":1}, {"name":"まいばすけっと清川2丁目店","prefecture_id":13,"address":"台東区清川2-4-3","address2":"金澤ビル","latitude":"35.726393","longitude":"139.801468","phone_number":"03-5808-1637","place_type":1}, {"name":"まいばすけっと清洲橋西店","prefecture_id":13,"address":"中央区日本橋中洲7-1","address2":"月村マンションNo.33","latitude":"35.683261","longitude":"139.790707","phone_number":"03-5643-7272","place_type":1}, {"name":"まいばすけっと錦糸町駅前店","prefecture_id":13,"address":"墨田区江東橋3-9-7","address2":"国宝ビル","latitude":"35.695162","longitude":"139.813246","phone_number":"03-5638-2066","place_type":1}, {"name":"まいばすけっと錦糸町駅西店","prefecture_id":13,"address":"墨田区江東橋1-15-1","address2":"CRイーストビル","latitude":"35.695845","longitude":"139.809427","phone_number":"03-5625-3570","place_type":1}, {"name":"まいばすけっと久が原3丁目店","prefecture_id":13,"address":"大田区久が原3-30-10","address2":"信濃屋ビル","latitude":"35.58076","longitude":"139.690556","phone_number":"03-5748-8220","place_type":1}, {"name":"まいばすけっと九段南3丁目店","prefecture_id":13,"address":"千代田区九段南3-3-4","address2":"ニューライフビル","latitude":"35.6918","longitude":"139.741893","phone_number":"03-3239-0801","place_type":1}, {"name":"まいばすけっと熊野前店","prefecture_id":13,"address":"荒川区東尾久8-32-3","address2":"サンハウス","latitude":"35.750139","longitude":"139.767642","phone_number":"03-5901-0012","place_type":1}, {"name":"まいばすけっと池上7丁目店","prefecture_id":13,"address":"大田区池上7-5-4","address2":"オーケーコート","latitude":"35.572025","longitude":"139.699294","phone_number":"03-5747-6175","place_type":1}, {"name":"まいばすけっと京急蒲田駅前店","prefecture_id":13,"address":"大田区蒲田4-18-12","address2":"クオーレイナバ1F","latitude":"35.560388","longitude":"139.723053","phone_number":"03-5744-3408","place_type":1}, {"name":"まいばすけっと京成金町店","prefecture_id":13,"address":"葛飾区金町5-34-17","address2":"和田ビル","latitude":"35.766969","longitude":"139.870715","phone_number":"03-3826-4415","place_type":1}, {"name":"まいばすけっと京成小岩駅南店","prefecture_id":13,"address":"江戸川区北小岩2-8-15","address2":null,"latitude":"35.742133","longitude":"139.882802","phone_number":"03-5612-5705","place_type":1}, {"name":"まいばすけっと京成曳舟駅東店","prefecture_id":13,"address":"墨田区京島1-47-11","address2":"シャトー京島マンション","latitude":"35.718482","longitude":"139.821845","phone_number":"03-5631-3501","place_type":1}, {"name":"まいばすけっと京成曳舟駅前店","prefecture_id":13,"address":"墨田区京島1-6-6","address2":"アトラスタワー曳舟","latitude":"35.716796","longitude":"139.818315","phone_number":"03-5655-6371","place_type":1}, {"name":"まいばすけっと小石川植物園前店","prefecture_id":13,"address":"文京区白山3-1-3","address2":"播磨坂ビル","latitude":"35.717636","longitude":"139.744592","phone_number":"03-5805-3531","place_type":1}, {"name":"まいばすけっと小石川2丁目店","prefecture_id":13,"address":"文京区小石川2-25-16","address2":"小石川パーソナルハウス","latitude":"35.712253","longitude":"139.751081","phone_number":"03-5805-5057","place_type":1}, {"name":"まいばすけっと高円寺駅北店","prefecture_id":13,"address":"杉並区高円寺北2-22-1","address2":"CONCORD高円寺","latitude":"35.70744","longitude":"139.650709","phone_number":"03-5356-1560","place_type":1}, {"name":"まいばすけっと高円寺南1丁目店","prefecture_id":13,"address":"杉並区高円寺南1-6-11","address2":"共栄ハイツ東高円寺","latitude":"35.698649","longitude":"139.658628","phone_number":"03-5305-5601","place_type":1}, {"name":"まいばすけっと高円寺南2丁目店","prefecture_id":13,"address":"杉並区高円寺南2-3-3","address2":"マエダ第二ビル","latitude":"35.698152","longitude":"139.652576","phone_number":"03-5305-3230","place_type":1}, {"name":"まいばすけっと池尻3丁目店","prefecture_id":13,"address":"世田谷区池尻3-27-30","address2":"カーサ・クニ","latitude":"35.649798","longitude":"139.679656","phone_number":"03-5712-5361","place_type":1}, {"name":"まいばすけっと糀谷駅南店","prefecture_id":13,"address":"大田区本羽田1-5-7","address2":"メゾンドロゼ","latitude":"35.549689","longitude":"139.72962","phone_number":"03-5735-0127","place_type":1}, {"name":"まいばすけっと江東扇橋3丁目店","prefecture_id":13,"address":"江東区扇橋3-3-6","address2":"サンパティオ","latitude":"35.682841","longitude":"139.818798","phone_number":"03-5653-5117","place_type":1}, {"name":"まいばすけっと江東大島7丁目店","prefecture_id":13,"address":"江東区大島7-38-34","address2":"大島岡田ビル","latitude":"35.690679","longitude":"139.84189","phone_number":"03-5628-3272","place_type":1}, {"name":"まいばすけっと江東亀戸5丁目店","prefecture_id":13,"address":"江東区亀戸5-33-18","address2":"ハウスガスコン","latitude":"35.698126","longitude":"139.830497","phone_number":"03-5628-3737","place_type":1}, {"name":"まいばすけっと江東亀戸6丁目店","prefecture_id":13,"address":"江東区亀戸6-13-7","address2":"ノーブルメゾン亀戸","latitude":"35.694709","longitude":"139.826195","phone_number":"03-5628-6586","place_type":1}, {"name":"まいばすけっと江東亀戸7丁目店","prefecture_id":13,"address":"江東区亀戸7-58-4","address2":"東陽マンション","latitude":"35.695904","longitude":"139.836277","phone_number":"03-5628-2556","place_type":1}, {"name":"まいばすけっと江東旧葛西橋店","prefecture_id":13,"address":"江東区東砂5-3-13","address2":"NV東砂5（MB）","latitude":"35.675512","longitude":"139.841283","phone_number":"03-5677-5371","place_type":1}, {"name":"まいばすけっと江東千石1丁目店","prefecture_id":13,"address":"江東区千石1-4-24","address2":"MNビル","latitude":"35.677085","longitude":"139.811809","phone_number":"03-5635-6707","place_type":1}, {"name":"まいばすけっと江東東陽1丁目店","prefecture_id":13,"address":"江東区東陽1-25-1","address2":"東陽1丁目ビル","latitude":"35.667149","longitude":"139.811222","phone_number":"03-5653-3385","place_type":1}, {"name":"まいばすけっと江東富岡1丁目店","prefecture_id":13,"address":"江東区富岡1-26-18","address2":"田崎ビル","latitude":"35.669723","longitude":"139.800378","phone_number":"03-5639-3780","place_type":1}, {"name":"まいばすけっと池ノ上駅前店","prefecture_id":13,"address":"世田谷区代沢2-45-8","address2":"フラッツ池ノ上","latitude":"35.660813","longitude":"139.672651","phone_number":"03-5738-2095","place_type":1}, {"name":"まいばすけっと江東東砂5丁目店","prefecture_id":13,"address":"江東区東砂5-4-15","address2":null,"latitude":"35.676462","longitude":"139.840333","phone_number":"03-5635-3017","place_type":1}, {"name":"まいばすけっと豪徳寺店","prefecture_id":13,"address":"世田谷区豪徳寺1-49-1","address2":null,"latitude":"35.654647","longitude":"139.647222","phone_number":"03-5426-3132","place_type":1}, {"name":"まいばすけっと小竹向原駅北店","prefecture_id":13,"address":"板橋区小茂根1-28-14","address2":"ジョイフル・サンワ","latitude":"35.7452","longitude":"139.678072","phone_number":"03-5917-2205","place_type":1}, {"name":"まいばすけっと駒込6丁目店","prefecture_id":13,"address":"豊島区駒込6-26-11","address2":null,"latitude":"35.740803","longitude":"139.743069","phone_number":"03-5961-0377","place_type":1}, {"name":"まいばすけっと駒込7丁目店","prefecture_id":13,"address":"豊島区駒込7-17-3","address2":"人見フェリスハイツ","latitude":"35.741836","longitude":"139.740611","phone_number":"03-5907-5585","place_type":1}, {"name":"まいばすけっと駒場1丁目店","prefecture_id":13,"address":"目黒区駒場1-11-14","address2":"駿河ビル","latitude":"35.657477","longitude":"139.687097","phone_number":"03-5465-1020","place_type":1}, {"name":"まいばすけっと鷺ノ宮駅南店","prefecture_id":13,"address":"中野区白鷺2-48-11","address2":"ライオンズマンション鷺ノ宮","latitude":"35.721555","longitude":"139.637096","phone_number":"03-5356-1261","place_type":1}, {"name":"まいばすけっと桜新町1丁目店","prefecture_id":13,"address":"世田谷区桜新町1-19-10","address2":null,"latitude":"35.630824","longitude":"139.642149","phone_number":"03-5426-0530","place_type":1}, {"name":"まいばすけっと桜新町駅前店","prefecture_id":13,"address":"世田谷区桜新町2-10-17","address2":"日平会館","latitude":"35.631896","longitude":"139.643421","phone_number":"03-5426-3275","place_type":1}, {"name":"まいばすけっと鮫洲駅前店","prefecture_id":13,"address":"品川区東大井4-7-9","address2":null,"latitude":"35.604919","longitude":"139.741532","phone_number":"03-5780-9327","place_type":1}, {"name":"まいばすけっと池袋駅西店","prefecture_id":13,"address":"豊島区池袋2-69-5","address2":"パシフィック池袋香栄","latitude":"35.735658","longitude":"139.708814","phone_number":"03-5928-0960","place_type":1}, {"name":"まいばすけっと三軒茶屋店","prefecture_id":13,"address":"世田谷区三軒茶屋2-46-4","address2":"福島マンション1階","latitude":"35.64002","longitude":"139.661636","phone_number":"03-5779-6458","place_type":1}, {"name":"まいばすけっと三軒茶屋1丁目店","prefecture_id":13,"address":"世田谷区三軒茶屋1-29-13","address2":"ハイツ三軒茶屋","latitude":"35.64139","longitude":"139.669599","phone_number":"03-5779-7047","place_type":1}, {"name":"まいばすけっと三軒茶屋2丁目店4/8（金）オープン","prefecture_id":13,"address":"世田谷区三軒茶屋2-14-5","address2":"YS中央","latitude":"35.642776","longitude":"139.669071","phone_number":"03-5787-3267","place_type":1}, {"name":"まいばすけっと三軒茶屋駅北口店","prefecture_id":13,"address":"世田谷区太子堂2-14-6","address2":"スペーシア三軒茶屋弐番館","latitude":"35.644462","longitude":"139.672212","phone_number":"03-5433-2750","place_type":1}, {"name":"まいばすけっと三軒茶屋駅西店","prefecture_id":13,"address":"世田谷区太子堂4-8-16","address2":"コーポ井上","latitude":"35.643398","longitude":"139.665419","phone_number":"03-5431-3206","place_type":1}, {"name":" まいばすけっと山王3丁目店","prefecture_id":13,"address":"大田区山王3-23-5","address2":"中村ビル","latitude":"35.583162","longitude":"139.722913","phone_number":"03-5718-6057","place_type":1}, {"name":"まいばすけっと椎名町駅前店","prefecture_id":13,"address":"豊島区南長崎1-25-21","address2":null,"latitude":"35.726286","longitude":"139.694749","phone_number":"03-5988-9175","place_type":1}, {"name":"まいばすけっと鹿骨1丁目店","prefecture_id":13,"address":"江戸川区鹿骨1-43-4","address2":null,"latitude":"35.707277","longitude":"139.889385","phone_number":"03-5664-0040","place_type":1}, {"name":"まいばすけっと下谷3丁目店","prefecture_id":13,"address":"台東区下谷3-10-10","address2":"SN入谷ビル","latitude":"35.724384","longitude":"139.78695","phone_number":"03-5808-1871","place_type":1}, {"name":"まいばすけっと品川橋店","prefecture_id":13,"address":"品川区南品川1-4-23","address2":null,"latitude":"35.616512","longitude":"139.744579","phone_number":"03-5781-1533","place_type":1}, {"name":"まいばすけっと池袋2丁目店","prefecture_id":13,"address":"豊島区池袋2-62-14","address2":"第八恩田ビル","latitude":"35.735114","longitude":"139.710484","phone_number":"03-5956-5735","place_type":1}, {"name":"まいばすけっと芝5丁目店","prefecture_id":13,"address":"港区芝5-16-2","address2":"芝田町ビル","latitude":"35.64875","longitude":"139.745942","phone_number":"03-5439-5316","place_type":1}, {"name":"まいばすけっと芝浦1丁目店","prefecture_id":13,"address":"港区芝浦1-7-14","address2":"岡家寿ビル","latitude":"35.648044","longitude":"139.754169","phone_number":"03-5439-6171","place_type":1}, {"name":"まいばすけっと柴又1丁目店","prefecture_id":13,"address":"葛飾区柴又1-14-4","address2":"柴又1丁目ビル","latitude":"35.754882","longitude":"139.871306","phone_number":"03-3826-5388","place_type":1}, {"name":"まいばすけっと柴又5丁目店","prefecture_id":13,"address":"葛飾区柴又5-10-1","address2":"コスモ柴又","latitude":"35.753112","longitude":"139.878271","phone_number":"03-5889-8530","place_type":1}, {"name":"まいばすけっと渋谷本町6丁目店","prefecture_id":13,"address":"渋谷区本町6-18-6","address2":"レジデンス初台","latitude":"35.68213","longitude":"139.678616","phone_number":"03-5358-2391","place_type":1}, {"name":"まいばすけっと志村1丁目店","prefecture_id":13,"address":"板橋区志村1-1-9","address2":"妙法ビル","latitude":"35.771568","longitude":"139.699488","phone_number":"03-5916-6446","place_type":1}, {"name":"まいばすけっと下赤塚駅前店","prefecture_id":13,"address":"板橋区赤塚2-10-16","address2":"シバタツセンタービル","latitude":"35.771927","longitude":"139.644168","phone_number":"03-5968-6020","place_type":1}, {"name":"まいばすけっと下井草1丁目店","prefecture_id":13,"address":"杉並区下井草1-32-5","address2":"北誠ビル","latitude":"35.716733","longitude":"139.627252","phone_number":"03-5311-3801","place_type":1}, {"name":"まいばすけっと下落合4丁目店","prefecture_id":13,"address":"新宿区下落合4-23-13","address2":"プログレス目白101号室","latitude":"35.721767","longitude":"139.695555","phone_number":"03-5988-7992","place_type":1}, {"name":"まいばすけっと下馬3丁目店","prefecture_id":13,"address":"世田谷区下馬3-2-1","address2":null,"latitude":"35.632536","longitude":"139.677157","phone_number":"03-5779-8927","place_type":1}, {"name":"まいばすけっと板橋駅南店","prefecture_id":13,"address":"北区滝野川7-21-12","address2":"リヴェール丹野","latitude":"35.743089","longitude":"139.720851","phone_number":"03-5907-5616","place_type":1}, {"name":"まいばすけっと下北沢南口店","prefecture_id":13,"address":"世田谷区北沢2-4-10","address2":null,"latitude":"35.660554","longitude":"139.668798","phone_number":"03-5779-9135","place_type":1}, {"name":"まいばすけっと下丸子駅南店","prefecture_id":13,"address":"大田区下丸子3-13-8","address2":"グリーンアベニューY","latitude":"35.569342","longitude":"139.686415","phone_number":"03-5732-1818","place_type":1}, {"name":"まいばすけっと下目黒2丁目店","prefecture_id":13,"address":"目黒区下目黒2-18-5","address2":"コスモグラシア目黒","latitude":"35.631641","longitude":"139.710644","phone_number":"03-5719-3007","place_type":1}, {"name":"まいばすけっと新板橋駅南店","prefecture_id":1,"address":"東京都板橋区板橋1-27-10","address2":"サンパレス板橋","latitude":"35.747983","longitude":"139.717187","phone_number":"03-5943-6377","place_type":1}, {"name":"まいばすけっと新大久保駅北店","prefecture_id":1,"address":"東京都新宿区百人町2-11-23","address2":"Shinokuboコミュニケーションビル","latitude":"35.70215","longitude":"139.699136","phone_number":"03-5348-6136","place_type":1}, {"name":"まいばすけっと新大橋1丁目店","prefecture_id":1,"address":"東京都江東区新大橋1-8-2","address2":"新大橋リバーサイドビル","latitude":"35.689032","longitude":"139.792623","phone_number":"03-5638-5107","place_type":1}, {"name":"まいばすけっと新御徒町駅南店","prefecture_id":1,"address":"東京都台東区台東2-19-10","address2":"キムラヤビル","latitude":"35.703477","longitude":"139.780929","phone_number":"03-5812-7885","place_type":1}, {"name":"まいばすけっと新蒲田店","prefecture_id":13,"address":"大田区新蒲田3-15-1","address2":"シャトーグランデアキモト1階","latitude":"35.55693","longitude":"139.706791","phone_number":"03-5711-8130","place_type":1}, {"name":"まいばすけっと新川2丁目店","prefecture_id":13,"address":"中央区新川2-1-5","address2":"THE","latitude":"35.677242","longitude":"139.780091","phone_number":"03-5542-2885","place_type":1}, {"name":"まいばすけっと神宮前2丁目店 ","prefecture_id":13,"address":"渋谷区神宮前2-6-10","address2":"パークレーン","latitude":"35.672699","longitude":"139.71168","phone_number":"03-5785-2361","place_type":1}, {"name":"まいばすけっと板橋宿店","prefecture_id":13,"address":"板橋区板橋3-15-5","address2":"アトラス板橋","latitude":"35.750898","longitude":"139.712449","phone_number":"03-5943-8777","place_type":1}, {"name":"まいばすけっと神宮前2丁目商店街店","prefecture_id":13,"address":"渋谷区神宮前2-19-13","address2":"プロミネントビル原宿","latitude":"35.673623","longitude":"139.710419","phone_number":"03-5770-8550","place_type":1}, {"name":"まいばすけっと新小岩1丁目店","prefecture_id":13,"address":"葛飾区新小岩1-51-8","address2":"サンライズ","latitude":"35.715481","longitude":"139.860408","phone_number":"03-5678-5505","place_type":1}, {"name":"まいばすけっと新小岩駅南口店","prefecture_id":13,"address":"葛飾区新小岩1-46-3","address2":"東栄ビル","latitude":"35.717086","longitude":"139.858666","phone_number":"03-5678-6773","place_type":1}, {"name":"まいばすけっと新宿5丁目店","prefecture_id":13,"address":"新宿区新宿5-11-22","address2":"中島ビル","latitude":"35.693249","longitude":"139.707805","phone_number":"03-5362-3235","place_type":1}, {"name":"まいばすけっと新宿三栄町店 ","prefecture_id":13,"address":"新宿区三栄町6-12","address2":"アークランド四ツ谷ビル","latitude":"35.688194","longitude":"139.726589","phone_number":"03-5919-3896","place_type":1}, {"name":"まいばすけっと新宿住吉町店","prefecture_id":13,"address":"新宿区住吉町3-17","address2":"グランリドー","latitude":"35.692116","longitude":"139.719634","phone_number":"03-5361-7606","place_type":1}, {"name":"まいばすけっと新宿原町3丁目店","prefecture_id":13,"address":"新宿区原町3-30","address2":"タカビル","latitude":"35.700287","longitude":"139.721966","phone_number":"03-5291-1071","place_type":1}, {"name":"まいばすけっと新宿百人町2丁目店","prefecture_id":13,"address":"新宿区百人町2-26-9","address2":"三浦ビル","latitude":"35.704072","longitude":"139.695019","phone_number":"03-5348-7322","place_type":1}, {"name":"まいばすけっと新宿百人町3丁目店","prefecture_id":13,"address":"新宿区百人町3-21-11","address2":"グリーンコープ","latitude":"35.705236","longitude":"139.699933","phone_number":"03-5348-5526","place_type":1}, {"name":"まいばすけっと神泉駅前店","prefecture_id":13,"address":"渋谷区円山町16-4","address2":"Loop138渋谷","latitude":"35.657621","longitude":"139.69389","phone_number":"03-5428-8726","place_type":1}, {"name":"まいばすけっと青山一丁目店","prefecture_id":13,"address":"港区南青山1-3-2","address2":"青山一丁目タワー","latitude":"35.671635","longitude":"139.725243","phone_number":"03-5775-3612","place_type":1}, {"name":"まいばすけっと板橋本町駅前店","prefecture_id":13,"address":"板橋区本町37-10","address2":"田村ビル","latitude":"35.761202","longitude":"139.706052","phone_number":"03-5943-8760","place_type":1}, {"name":"まいばすけっと新富町駅前店","prefecture_id":13,"address":"中央区入船3-2-6","address2":"NTT築地ビル","latitude":"35.670576","longitude":"139.775761","phone_number":"03-5540-8561","place_type":1}, {"name":"まいばすけっと新橋5丁目店","prefecture_id":13,"address":"港区新橋5-15-5","address2":"交通ビル","latitude":"35.662079","longitude":"139.755871","phone_number":"03-6402-4547","place_type":1}, {"name":"まいばすけっと新三河島駅北店","prefecture_id":13,"address":"荒川区東尾久1-1-4","address2":"小澤ビル","latitude":"35.738138","longitude":"139.772875","phone_number":"03-5692-5405","place_type":1}, {"name":"まいばすけっと水天宮店","prefecture_id":13,"address":"中央区日本橋蛎殻町2-10-11","address2":"秀和蛎殻町ビル","latitude":"35.683511","longitude":"139.787021","phone_number":"03-5643-2992","place_type":1}, {"name":"まいばすけっと巣鴨3丁目店","prefecture_id":13,"address":"豊島区巣鴨3-21-26","address2":"田村ビル","latitude":"35.733873","longitude":"139.735948","phone_number":"03-5961-6011","place_type":1}, {"name":"まいばすけっと巣鴨5丁目店","prefecture_id":13,"address":"豊島区巣鴨5-16-5","address2":"フロール巣鴨","latitude":"35.740536","longitude":"139.732053","phone_number":"03-5907-3307","place_type":1}, {"name":"まいばすけっと杉並和泉2丁目店","prefecture_id":13,"address":"杉並区和泉2-6-9","address2":null,"latitude":"35.671988","longitude":"139.65151","phone_number":"03-5355-7220","place_type":1}, {"name":"まいばすけっと杉並桃井3丁目店","prefecture_id":13,"address":"杉並区桃井3-2-1","address2":"レクセル荻窪","latitude":"35.711483","longitude":"139.606724","phone_number":"03-5311-0280","place_type":1}, {"name":"まいばすけっと墨田太平1丁目店","prefecture_id":13,"address":"墨田区太平1-22-12","address2":"ヴィレッジワン太平","latitude":"35.701195","longitude":"139.811227","phone_number":"03-5611-6606","place_type":1}, {"name":"まいばすけっと墨田緑2丁目店","prefecture_id":13,"address":"墨田区緑2-2-7","address2":"Aries","latitude":"35.692665","longitude":"139.802864","phone_number":"03-5638-0626","place_type":1}, {"name":"まいばすけっと市谷薬王寺町店","prefecture_id":13,"address":"新宿区市谷薬王寺町59","address2":"レジディア市谷薬王寺","latitude":"35.696054","longitude":"139.725422","phone_number":"03-5227-3808","place_type":1}, {"name":"まいばすけっと世田谷代田駅前店","prefecture_id":13,"address":"世田谷区代田4-1-18","address2":"ハヤマビル1階","latitude":"35.658424","longitude":"139.659716","phone_number":"03-5329-3075","place_type":1}, {"name":"まいばすけっとゼームス坂店","prefecture_id":13,"address":"品川区南品川6-15-28","address2":"ゼームス坂ヒルトップ","latitude":"35.608843","longitude":"139.737741","phone_number":"03-6716-0758","place_type":1}, {"name":"まいばすけっと千石2丁目店","prefecture_id":13,"address":"文京区千石2-4-2","address2":null,"latitude":"35.722949","longitude":"139.738167","phone_number":"03-5977-0661","place_type":1}, {"name":"まいばすけっと千住大橋駅北店4/8（金）オープン","prefecture_id":13,"address":"足立区千住河原町9-10","address2":"アビタ・ヴァン","latitude":"35.743777","longitude":"139.797198","phone_number":"03-5284-1061","place_type":1}, {"name":"まいばすけっと洗足店","prefecture_id":13,"address":"目黒区洗足2-8-2","address2":"関興パークハイツ","latitude":"35.612891","longitude":"139.693423","phone_number":"03-5768-3048","place_type":1}, {"name":"まいばすけっと洗足池駅前店","prefecture_id":13,"address":"大田区上池台2-32-1","address2":"小林ビル","latitude":"35.599557","longitude":"139.691529","phone_number":"03-5754-5655","place_type":1}, {"name":"まいばすけっと洗足駅前店","prefecture_id":13,"address":"目黒区洗足2-24-13","address2":null,"latitude":"35.610289","longitude":"139.695109","phone_number":"03-5749-4075","place_type":1}, {"name":"まいばすけっと千束3丁目店","prefecture_id":13,"address":"台東区千束3-10-5","address2":"千濱ビル","latitude":"35.721009","longitude":"139.791755","phone_number":"03-5808-1571","place_type":1}, {"name":"まいばすけっと千駄木3丁目店","prefecture_id":13,"address":"文京区千駄木3-48-8","address2":"ライオンズマンション千駄木第2","latitude":"35.730034","longitude":"139.763171","phone_number":"03-5815-3877","place_type":1}, {"name":"まいばすけっと台東下谷3丁目店","prefecture_id":13,"address":"台東区下谷3-20-17","address2":"スカイハイツ下谷","latitude":"35.727434","longitude":"139.789322","phone_number":"03-5808-0502","place_type":1}, {"name":"まいばすけっと入谷2丁目店","prefecture_id":13,"address":"台東区入谷2-9-1","address2":"メゾン・ド・アルピニア","latitude":"35.71921","longitude":"139.787903","phone_number":"03-5824-0380","place_type":1}, {"name":"まいばすけっと台場1丁目店","prefecture_id":13,"address":"港区台場1-1-3","address2":"都営台場1丁目アパート内","latitude":"35.634413","longitude":"139.776418","phone_number":"03-3599-0155","place_type":1}, {"name":"まいばすけっと高島平駅前店","prefecture_id":13,"address":"板橋区高島平8-13-14","address2":"山久マンション塩野","latitude":"35.789353","longitude":"139.662669","phone_number":"03-5922-5075","place_type":1}, {"name":"まいばすけっと高田馬場駅北店","prefecture_id":13,"address":"豊島区高田3-10-12","address2":"白夜書房本社ビル","latitude":"35.713807","longitude":"139.706523","phone_number":"03-5155-3808","place_type":1}, {"name":"まいばすけっと鷹番3丁目店","prefecture_id":13,"address":"目黒区鷹番3-19-5","address2":"シャトーエスペランス","latitude":"35.629514","longitude":"139.683331","phone_number":"03-5768-1315","place_type":1}, {"name":"まいばすけっと立会川店","prefecture_id":13,"address":"品川区南大井1-4-10","address2":"石原屋ビル1階","latitude":"35.59685","longitude":"139.738686","phone_number":"03-5753-7490","place_type":1}, {"name":"まいばすけっと立会川駅北店","prefecture_id":13,"address":"品川区東大井2-22-13","address2":null,"latitude":"35.599508","longitude":"139.738828","phone_number":"03-5753-2107","place_type":1}, {"name":"まいばすけっと田端駅北店","prefecture_id":13,"address":"北区東田端2-1-3","address2":"天宮ビル","latitude":"35.739956","longitude":"139.761562","phone_number":"03-5692-5285","place_type":1}, {"name":"まいばすけっと玉堤2丁目店","prefecture_id":13,"address":"世田谷区玉堤2-3-22","address2":null,"latitude":"35.598648","longitude":"139.64905","phone_number":"03-5752-1661","place_type":1}, {"name":"まいばすけっと地下鉄赤塚駅前店","prefecture_id":13,"address":"板橋区赤塚新町1-26-4","address2":"アーバンライフ赤塚","latitude":"35.770933","longitude":"139.64279","phone_number":"03-5968-8770","place_type":1}, {"name":"まいばすけっと地下鉄赤塚駅南店","prefecture_id":13,"address":"板橋区赤塚新町3-3-20","address2":"パレシオンコチョー","latitude":"35.770388","longitude":"139.641124","phone_number":"03-5968-8860","place_type":1}, {"name":"まいばすけっと岩本町2丁目店","prefecture_id":13,"address":"千代田区岩本町2-12-5","address2":"早川トナカイビル","latitude":"35.694426","longitude":"139.77661","phone_number":"03-5835-1266","place_type":1}, {"name":"まいばすけっと千鳥2丁目店","prefecture_id":13,"address":"大田区千鳥2-12-12","address2":"相川ビル","latitude":"35.569678","longitude":"139.695959","phone_number":"03-5732-1031","place_type":1}, {"name":"まいばすけっと中央町2丁目店","prefecture_id":13,"address":"目黒区中央町2-5-2","address2":"AquaWoods学芸大学1F","latitude":"35.631683","longitude":"139.692789","phone_number":"03-5725-9350","place_type":1}, {"name":"まいばすけっと堤通2丁目店","prefecture_id":13,"address":"墨田区堤通2-7-37","address2":"白鬚店舗（しらひげてんぽ）","latitude":"35.734323","longitude":"139.81685","phone_number":"03-5631-6016","place_type":1}, {"name":"まいばすけっと田園調布1丁目店","prefecture_id":13,"address":"大田区田園調布1丁目6-3","address2":"早川ビル","latitude":"35.587772","longitude":"139.674548","phone_number":"03-5483-6637","place_type":1}, {"name":"まいばすけっととうきょうスカイツリー駅南店","prefecture_id":13,"address":"墨田区業平1-14-1","address2":"ツリーガーデン松嶋","latitude":"35.708336","longitude":"139.808813","phone_number":"03-5819-4025","place_type":1}, {"name":"まいばすけっと東武練馬駅南口店","prefecture_id":13,"address":"練馬区北町2-36-26","address2":"ニューホープ北町","latitude":"35.768516","longitude":"139.661093","phone_number":"03-5922-3872","place_type":1}, {"name":"まいばすけっと東武曳舟駅西店","prefecture_id":13,"address":"墨田区東向島2-16-13","address2":"中尾産業株式会社","latitude":"35.718441","longitude":"139.816095","phone_number":"03-5631-7220","place_type":1}, {"name":"まいばすけっと徳丸1丁目店","prefecture_id":13,"address":"板橋区徳丸1-17-14","address2":"サンパレス徳丸第3","latitude":"35.769431","longitude":"139.667236","phone_number":"03-5922-5156","place_type":1}, {"name":"まいばすけっと徳丸6丁目店","prefecture_id":13,"address":"板橋区徳丸6-9-28","address2":"Fullauze101号室","latitude":"35.778288","longitude":"139.664708","phone_number":"03-5922-6806","place_type":1}, {"name":"まいばすけっと戸越公園店","prefecture_id":13,"address":"品川区戸越5-18-14","address2":"ノアール1F","latitude":"35.608929","longitude":"139.71752","phone_number":"03-5749-3318","place_type":1}, {"name":"まいばすけっと岩本町3丁目店","prefecture_id":13,"address":"千代田区岩本町3-5-5","address2":"常和岩本町ビル","latitude":"35.695228","longitude":"139.777594","phone_number":"03-5835-1235","place_type":1}, {"name":"まいばすけっと豊島園駅前店","prefecture_id":13,"address":"練馬区練馬4-13-13","address2":"カスティージョ","latitude":"35.741353","longitude":"139.648891","phone_number":"03-5912-1575","place_type":1}, {"name":"まいばすけっと都電梶原前店","prefecture_id":13,"address":"北区堀船3-32-11","address2":"インジニアスビル","latitude":"35.751282","longitude":"139.749299","phone_number":"03-5902-7075","place_type":1}, {"name":"まいばすけっと等々力駅前店","prefecture_id":13,"address":"世田谷区等々力3-6-15","address2":"ナノックスビル","latitude":"35.608905","longitude":"139.647094","phone_number":"03-5752-7706","place_type":1}, {"name":"まいばすけっと等々力7丁目店","prefecture_id":13,"address":"世田谷区等々力7-3-4","address2":null,"latitude":"35.613357","longitude":"139.655981","phone_number":"03-5758-7081","place_type":1}, {"name":"まいばすけっと富岡八幡店","prefecture_id":13,"address":"江東区富岡2-4-1","address2":"京徳第一ビル","latitude":"35.671186","longitude":"139.800879","phone_number":"03-5639-1956","place_type":1}, {"name":"まいばすけっと仲池上店","prefecture_id":13,"address":"大田区仲池上2丁目12-14","address2":"福島第3ビル","latitude":"35.585059","longitude":"139.699288","phone_number":"03-5747-5917","place_type":1}, {"name":"まいばすけっと中板橋駅前店","prefecture_id":13,"address":"板橋区中板橋15-4","address2":"ブックワンビル","latitude":"35.755942","longitude":"139.697686","phone_number":"03-5943-5708","place_type":1}, {"name":"まいばすけっと仲御徒町店","prefecture_id":13,"address":"台東区台東4-17-1","address2":"偕楽ビル新台東","latitude":"35.706485","longitude":"139.779754","phone_number":"03-5812-3288","place_type":1}, {"name":"まいばすけっと中葛西3丁目店","prefecture_id":13,"address":"江戸川区中葛西3-33-11","address2":"マルカビル","latitude":"35.664773","longitude":"139.871947","phone_number":"03-6663-5511","place_type":1}, {"name":"まいばすけっと中葛西8丁目店","prefecture_id":13,"address":"江戸川区中葛西8-13-20","address2":"プラムハイライズ","latitude":"35.658796","longitude":"139.87245","phone_number":"03-5676-5166","place_type":1}, {"name":"まいばすけっと牛込神楽坂駅西店","prefecture_id":13,"address":"新宿区細工町3-15","address2":"石黒ビル","latitude":"35.699588","longitude":"139.732882","phone_number":"03-5227-7127","place_type":1}, {"name":"まいばすけっと中根1丁目店","prefecture_id":13,"address":"目黒区中根1-6-7","address2":"都立大マンション","latitude":"35.616971","longitude":"139.675368","phone_number":"03-5731-9722","place_type":1}, {"name":"まいばすけっと中野2丁目店","prefecture_id":13,"address":"中野区中野2-1-5","address2":"ワードビル","latitude":"35.702752","longitude":"139.671369","phone_number":"03-5328-0580","place_type":1}, {"name":"まいばすけっと中野3丁目店","prefecture_id":13,"address":"中野区中野3-22-4","address2":null,"latitude":"35.703769","longitude":"139.662966","phone_number":"03-5342-2065","place_type":1}, {"name":"まいばすけっと中野新井1丁目店","prefecture_id":13,"address":"中野区新井1-14-3","address2":"久栄マンション","latitude":"35.710712","longitude":"139.666593","phone_number":"03-5318-6826","place_type":1}, {"name":"まいばすけっと中野中央2丁目店","prefecture_id":13,"address":"中野区中央2-21-3","address2":"フレンドマンション","latitude":"35.700755","longitude":"139.68169","phone_number":"03-5348-6126","place_type":1}, {"name":"まいばすけっと中野中央5丁目店","prefecture_id":13,"address":"中野区中央5-39-13","address2":"シャトレ・ソレイユ","latitude":"35.700474","longitude":"139.667049","phone_number":"03-5328-2506","place_type":1}, {"name":"まいばすけっと中延3丁目店","prefecture_id":13,"address":"品川区中延3-2-13","address2":null,"latitude":"35.608565","longitude":"139.711988","phone_number":"03-5749-7517","place_type":1}, {"name":"まいばすけっと中野弥生町1丁目店","prefecture_id":13,"address":"中野区弥生町1-42-9","address2":"シェソワ","latitude":"35.688551","longitude":"139.67636","phone_number":"03-5302-2590","place_type":1}, {"name":"まいばすけっと中野弥生町3丁目店","prefecture_id":13,"address":"中野区弥生町3-24-1","address2":"バウハウス","latitude":"35.686693","longitude":"139.67365","phone_number":"03-5354-3096","place_type":1}, {"name":"まいばすけっと中野弥生町5丁目店","prefecture_id":13,"address":"中野区弥生町5-2-6","address2":"サンシティ中野","latitude":"35.686298","longitude":"139.66752","phone_number":"03-5342-3308","place_type":1}, {"name":"まいばすけっと鵜の木2丁目店","prefecture_id":13,"address":"大田区鵜の木2-36-3","address2":"うのきガーデンプラザ","latitude":"35.574758","longitude":"139.678402","phone_number":"03-5732-5085","place_type":1}, {"name":"まいばすけっと中野6丁目店","prefecture_id":13,"address":"中野区中野6-15-10","address2":"永和ビル","latitude":"35.70849","longitude":"139.675182","phone_number":"03-5348-9475","place_type":1}, {"name":"まいばすけっと中村橋駅北店","prefecture_id":13,"address":"練馬区貫井2-5-3","address2":"プライム中幸","latitude":"35.739584","longitude":"139.637253","phone_number":"03-3577-8512","place_type":1}, {"name":"まいばすけっと中村橋駅南店","prefecture_id":13,"address":"練馬区中村3-23-10","address2":"アネックス中幸","latitude":"35.732698","longitude":"139.638937","phone_number":"03-3577-8170","place_type":1}, {"name":"まいばすけっと中目黒5丁目店","prefecture_id":13,"address":"目黒区中目黒5-1-21","address2":null,"latitude":"35.63813","longitude":"139.697596","phone_number":"03-5725-9260","place_type":1}, {"name":"まいばすけっと長原店","prefecture_id":13,"address":"大田区上池台1-5-1","address2":null,"latitude":"35.601784","longitude":"139.699995","phone_number":"03-5750-6027","place_type":1}, {"name":"まいばすけっと長原駅前店","prefecture_id":13,"address":"大田区上池台1-16-7","address2":null,"latitude":"35.602254","longitude":"139.697042","phone_number":"03-5754-4280","place_type":1}, {"name":"まいばすけっと業平1丁目店","prefecture_id":13,"address":"墨田区業平1-9-10","address2":"パルドモラール2","latitude":"35.708127","longitude":"139.810907","phone_number":"03-5819-0262","place_type":1}, {"name":"まいばすけっと西浅草2丁目店","prefecture_id":13,"address":"台東区西浅草2-22-9","address2":"武蔵屋ビル","latitude":"35.714252","longitude":"139.789509","phone_number":"03-5806-1580","place_type":1}, {"name":"まいばすけっと西麻布3丁目店","prefecture_id":13,"address":"港区西麻布3-3-23","address2":"フィルドア西麻布","latitude":"35.658306","longitude":"139.727124","phone_number":"03-5785-2747","place_type":1}, {"name":"まいばすけっと西池袋2丁目店","prefecture_id":13,"address":"豊島区西池袋2-9-3","address2":"サンクロード目白","latitude":"35.726398","longitude":"139.702545","phone_number":"03-5956-9066","place_type":1}, {"name":"まいばすけっと梅屋敷店","prefecture_id":13,"address":"大田区大森西6-13-16","address2":"渡辺ビル","latitude":"35.567856","longitude":"139.725958","phone_number":"03-5753-3513","place_type":1}, {"name":"まいばすけっと西池袋3丁目店","prefecture_id":13,"address":"豊島区西池袋3-17-19","address2":"アムールアドニス","latitude":"35.729125","longitude":"139.704848","phone_number":"03-5928-1626","place_type":1}, {"name":"まいばすけっと西池袋5丁目店","prefecture_id":13,"address":"豊島区西池袋5-14-8","address2":"東海アネックスビル","latitude":"35.732769","longitude":"139.70272","phone_number":"03-5928-5816","place_type":1}, {"name":"まいばすけっと西一之江4丁目店","prefecture_id":13,"address":"江戸川区西一之江4-1-23","address2":"ライオンズマンション一之江","latitude":"35.695545","longitude":"139.872357","phone_number":"03-5663-0292","place_type":1}, {"name":"まいばすけっと西大井6丁目店","prefecture_id":13,"address":"品川区西大井6-16-10","address2":null,"latitude":"35.600185","longitude":"139.716601","phone_number":"03-5742-7827","place_type":1}, {"name":"まいばすけっと西荻北5丁目店","prefecture_id":13,"address":"杉並区西荻北5-25-13","address2":"ライオンズマンション西荻第3","latitude":"35.710814","longitude":"139.601749","phone_number":"03-5311-0607","place_type":1}, {"name":"まいばすけっと西葛西3丁目店","prefecture_id":13,"address":"江戸川区西葛西3-4-15","address2":"シャルマンクレール","latitude":"35.665947","longitude":"139.856459","phone_number":"03-5679-6267","place_type":1}, {"name":"まいばすけっと西葛西6丁目店","prefecture_id":1,"address":"東京都江戸川区西葛西6-5-12","address2":"MLD西葛西ビル","latitude":"35.663881","longitude":"139.857329","phone_number":"03-5659-3281","place_type":1}, {"name":"まいばすけっと西葛西7丁目店","prefecture_id":1,"address":"東京都江戸川区西葛西7-14-8","address2":"第2長庄ビル","latitude":"35.660115","longitude":"139.860787","phone_number":"03-5667-5066","place_type":1}, {"name":"まいばすけっと西葛西8丁目店","prefecture_id":1,"address":"東京都江戸川区西葛西8-18-18","address2":null,"latitude":"35.656951","longitude":"139.863209","phone_number":"03-5679-6752","place_type":1}, {"name":"まいばすけっと西片1丁目店","prefecture_id":13,"address":"文京区西片1-17-8","address2":"KSビル","latitude":"35.713659","longitude":"139.752745","phone_number":"03-5805-0377","place_type":1}, {"name":"まいばすけっと江古田駅前店","prefecture_id":13,"address":"練馬区旭丘2-44-1","address2":"旭ヶ丘スクエア","latitude":"35.737376","longitude":"139.673989","phone_number":"03-5964-5436","place_type":1}, {"name":"まいばすけっと西ヶ原3丁目店","prefecture_id":13,"address":"北区西ケ原3-9-2","address2":null,"latitude":"35.74228","longitude":"139.742603","phone_number":"03-5980-0627","place_type":1}, {"name":"まいばすけっと西蒲田店","prefecture_id":13,"address":"大田区西蒲田1-17-19","address2":null,"latitude":"35.570231","longitude":"139.713937","phone_number":"03-5700-7300","place_type":1}, {"name":"まいばすけっと西蒲田1丁目店","prefecture_id":13,"address":"大田区西蒲田1丁目23-2","address2":null,"latitude":"35.572228","longitude":"139.710471","phone_number":"03-5747-5782","place_type":1}, {"name":"まいばすけっと西蒲田5丁目店","prefecture_id":13,"address":"大田区西蒲田5-3-22","address2":null,"latitude":"35.567295","longitude":"139.716523","phone_number":"03-5744-3197","place_type":1}, {"name":"まいばすけっと西蒲田7丁目店","prefecture_id":13,"address":"大田区西蒲田7-54-5","address2":"ルナハイツ蒲田","latitude":"35.56231","longitude":"139.709277","phone_number":"03-5744-3297","place_type":1}, {"name":"まいばすけっと西糀谷店","prefecture_id":13,"address":"大田区西糀谷4-5-2","address2":"ハイツアオキ第21","latitude":"35.55693","longitude":"139.731578","phone_number":"03-5735-2105","place_type":1}, {"name":"まいばすけっと西糀谷4丁目店","prefecture_id":13,"address":"大田区西糀谷4-10-6","address2":"石久ビル","latitude":"35.556069","longitude":"139.729903","phone_number":"03-5735-1092","place_type":1}, {"name":"まいばすけっと西五軒町店","prefecture_id":13,"address":"新宿区西五軒町8-8","address2":"サンセール神楽坂","latitude":"35.707215","longitude":"139.737093","phone_number":"03-5227-7667","place_type":1}, {"name":"まいばすけっと西五反田2丁目店","prefecture_id":13,"address":"品川区西五反田2-18-2","address2":"五反田ＫＹビル","latitude":"35.626679","longitude":"139.720964","phone_number":"03-5719-7557","place_type":1}, {"name":"まいばすけっと西五反田3丁目店","prefecture_id":13,"address":"品川区西五反田3-6-20","address2":"西五反田アクセス","latitude":"35.627867","longitude":"139.719162","phone_number":"03-5719-3980","place_type":1}, {"name":"まいばすけっと江古田栄町店","prefecture_id":13,"address":"練馬区栄町2-3","address2":"カマスズビル","latitude":"35.736718","longitude":"139.671231","phone_number":"03-5912-1775","place_type":1}, {"name":"まいばすけっと西五反田6丁目店","prefecture_id":13,"address":"品川区西五反田6-21-8","address2":"S・KビルⅡ","latitude":"35.62066","longitude":"139.715645","phone_number":"03-5436-2023","place_type":1}, {"name":"まいばすけっと西小山駅北店","prefecture_id":13,"address":"目黒区原町1-5-8","address2":"メゾンリュミエール","latitude":"35.616222","longitude":"139.697564","phone_number":"03-5768-3201","place_type":1}, {"name":"まいばすけっと西小山駅前店","prefecture_id":13,"address":"品川区小山5-22-11","address2":"松正ビル","latitude":"35.615644","longitude":"139.699486","phone_number":"03-5749-3561","place_type":1}, {"name":"まいばすけっと西新宿8丁目店","prefecture_id":13,"address":"新宿区西新宿8-5-10","address2":"新宿グロウビル","latitude":"35.695404","longitude":"139.693006","phone_number":"03-5337-7017","place_type":1}, {"name":"まいばすけっと西台駅西口店","prefecture_id":13,"address":"板橋区高島平1-81-12","address2":"セレクト西台","latitude":"35.78679","longitude":"139.672149","phone_number":"03-5922-3631","place_type":1}, {"name":"まいばすけっと西台駅前店","prefecture_id":13,"address":"板橋区蓮根3-9-10","address2":null,"latitude":"35.787126","longitude":"139.674765","phone_number":"03-5916-8820","place_type":1}, {"name":"まいばすけっと西日暮里2丁目店","prefecture_id":13,"address":"荒川区西日暮里2-30-2","address2":"セグビル","latitude":"35.730685","longitude":"139.772248","phone_number":"03-5615-0366","place_type":1}, {"name":"まいばすけっと西日暮里6丁目店","prefecture_id":13,"address":"荒川区西日暮里6-53-12","address2":"インターナショナルビル","latitude":"35.736224","longitude":"139.768054","phone_number":"03-5692-5811","place_type":1}, {"name":"まいばすけっと西馬込駅前店","prefecture_id":13,"address":"大田区南馬込5-30-5","address2":"マイキャッスル南馬込","latitude":"35.587431","longitude":"139.706645","phone_number":"03-6429-2600","place_type":1}, {"name":"まいばすけっと西瑞江5丁目店","prefecture_id":13,"address":"江戸川区西瑞江5-4-1","address2":"ドーミー一之江","latitude":"35.682238","longitude":"139.880599","phone_number":"03-5676-5311","place_type":1}, {"name":"まいばすけっと赤羽岩淵駅前店","prefecture_id":13,"address":"北区赤羽2-70-5","address2":null,"latitude":"35.783121","longitude":"139.722754","phone_number":"03-5249-4151","place_type":1}, {"name":"まいばすけっと江戸川三角店","prefecture_id":13,"address":"江戸川区江戸川6-20-2","address2":"TOMI大塚","latitude":"35.675139","longitude":"139.871516","phone_number":"03-5659-0205","place_type":1}, {"name":"まいばすけっと西六郷2丁目店","prefecture_id":13,"address":"大田区西六郷2-2-13","address2":"Nbldg.","latitude":"35.551453","longitude":"139.710105","phone_number":"03-5713-2030","place_type":1}, {"name":"まいばすけっと西早稲田駅前店","prefecture_id":13,"address":"新宿区高田馬場1-2-15","address2":"早稲田永谷マンション1階","latitude":"35.709583","longitude":"139.709148","phone_number":"03-5155-2530","place_type":1}, {"name":"まいばすけっと日本堤1丁目店","prefecture_id":13,"address":"台東区日本堤1-23-7","address2":"サンハウス","latitude":"35.726873","longitude":"139.800132","phone_number":"03-5808-1197","place_type":1}, {"name":"まいばすけっと日本橋蛎殻町店","prefecture_id":13,"address":"中央区日本橋蛎殻町1-37-12","address2":"パークアクシス日本橋ステージ","latitude":"35.6823","longitude":"139.785219","phone_number":"03-5623-9072","place_type":1}, {"name":"まいばすけっと日本橋富沢町店","prefecture_id":13,"address":"中央区日本橋富沢町12-8","address2":"昭和ビル","latitude":"35.690326","longitude":"139.781663","phone_number":"03-5643-2773","place_type":1}, {"name":"まいばすけっと日本橋箱崎町店","prefecture_id":13,"address":"中央区日本橋箱崎町31-4","address2":"箱崎314ビル","latitude":"35.680644","longitude":"139.787577","phone_number":"03-5643-6422","place_type":1}, {"name":"まいばすけっと日本橋浜町2丁目店","prefecture_id":13,"address":"中央区日本橋浜町2-35-4","address2":"日本橋浜町パークビル","latitude":"35.688729","longitude":"139.786254","phone_number":"03-3662-1281","place_type":1}, {"name":"まいばすけっと日本橋堀留町1丁目店","prefecture_id":13,"address":"中央区日本橋堀留町1-5-12","address2":"ヤシマ日本橋ビル","latitude":"35.687332","longitude":"139.779733","phone_number":"03-5643-9065","place_type":1}, {"name":"まいばすけっと日本橋本町4丁目店","prefecture_id":13,"address":"中央区日本橋本町4-15-9","address2":"曽田ビル","latitude":"35.690262","longitude":"139.777005","phone_number":"03-5643-1600","place_type":1}, {"name":"まいばすけっと日本橋横山町店","prefecture_id":13,"address":"中央区日本橋横山町1-3","address2":"OKK日本橋ビル","latitude":"35.691384","longitude":"139.781771","phone_number":"03-5649-2437","place_type":1}, {"name":"まいばすけっと江戸川中央2丁目店","prefecture_id":13,"address":"江戸川区中央2-27-1","address2":"中央二丁目店舗","latitude":"35.703213","longitude":"139.873747","phone_number":"03-5678-1681","place_type":1}, {"name":"まいばすけっと沼袋駅北店","prefecture_id":13,"address":"中野区沼袋3-28-10","address2":null,"latitude":"35.720744","longitude":"139.662713","phone_number":"03-5318-3375","place_type":1}, {"name":"まいばすけっと沼部駅前店","prefecture_id":13,"address":"大田区田園調布本町29-2","address2":"ウェル田園調布","latitude":"35.582887","longitude":"139.673335","phone_number":"03-5483-7871","place_type":1}, {"name":"まいばすけっと練馬北一商店街店","prefecture_id":13,"address":"練馬区北1-24-15","address2":"練馬北町ビルディング","latitude":"35.765476","longitude":"139.667575","phone_number":"03-5922-6371","place_type":1}, {"name":"まいばすけっと練馬駅北口店","prefecture_id":13,"address":"練馬区練馬1-22-9","address2":"シルバーパレス練馬駅前","latitude":"35.738756","longitude":"139.656987","phone_number":"03-5912-0291","place_type":1}, {"name":"まいばすけっと練馬北町2丁目店","prefecture_id":13,"address":"練馬区北町2-31-13","address2":"OYビル","latitude":"35.768525","longitude":"139.657567","phone_number":"03-5921-5560","place_type":1}, {"name":"まいばすけっと練馬北町8丁目店3/25(金)オープン","prefecture_id":13,"address":"練馬区北町8-34-10","address2":"ハイツ下赤塚","latitude":"35.768183","longitude":"139.647712","phone_number":"03-5922-3275","place_type":1}, {"name":"まいばすけっと練馬栄町店","prefecture_id":13,"address":"練馬区栄町40-14","address2":"三勇ビル","latitude":"35.739376","longitude":"139.671589","phone_number":"03-5912-1620","place_type":1}, {"name":"まいばすけっと練馬豊玉中1丁目店","prefecture_id":13,"address":"練馬区豊玉中1-7-5","address2":"一杉ビル","latitude":"35.728888","longitude":"139.661085","phone_number":"03-5912-2126","place_type":1}, {"name":"まいばすけっと野方駅北口店","prefecture_id":13,"address":"中野区野方6-13-6","address2":"ハニー野方","latitude":"35.722339","longitude":"139.652691","phone_number":"03-5327-5375","place_type":1}, {"name":"まいばすけっと野方駅南口店","prefecture_id":13,"address":"中野区野方5-30-13","address2":"ヴィラアテネ","latitude":"35.719461","longitude":"139.651728","phone_number":"03-5356-1701","place_type":1}, {"name":"まいばすけっと王子店4/22（金）オープン","prefecture_id":13,"address":"北区豊島1-1-1","address2":"ネクストサイト王子ビル","latitude":"35.756521","longitude":"139.739083","phone_number":"03-5959-0038","place_type":1}, {"name":"まいばすけっと野沢2丁目店","prefecture_id":13,"address":"世田谷区野沢2-31-10","address2":"ユーストリア駒沢","latitude":"35.634924","longitude":"139.665827","phone_number":"03-5431-5760","place_type":1}, {"name":"まいばすけっと幡ヶ谷2丁目店","prefecture_id":13,"address":"渋谷区幡ヶ谷2-21-1","address2":"シャトレー幡ヶ谷第一","latitude":"35.67645","longitude":"139.673089","phone_number":"03-5354-7430","place_type":1}, {"name":"まいばすけっと旗の台店","prefecture_id":13,"address":"品川区旗の台4-4-1","address2":"カーサ旗の台1階","latitude":"35.603693","longitude":"139.70583","phone_number":"03-5749-3678","place_type":1}, {"name":"まいばすけっと八幡山駅前店","prefecture_id":13,"address":"杉並区上高井戸1-1-17","address2":"日立八幡山ビル","latitude":"35.669252","longitude":"139.615605","phone_number":"03-5316-3512","place_type":1}, {"name":"まいばすけっと浜松町駅南店","prefecture_id":13,"address":"港区浜松町2-13-14","address2":"サンワード浜松町","latitude":"35.653166","longitude":"139.756252","phone_number":"03-6402-4705","place_type":1}, {"name":"まいばすけっと東麻布1丁目店","prefecture_id":13,"address":"港区東麻布1-8-1","address2":"東麻布ISビル","latitude":"35.657065","longitude":"139.743036","phone_number":"03-5549-2605","place_type":1}, {"name":"まいばすけっと東麻布2丁目店","prefecture_id":13,"address":"港区東麻布2-22-5","address2":"ベルス麻布","latitude":"35.656704","longitude":"139.740839","phone_number":"03-3568-3266","place_type":1}, {"name":"まいばすけっと東池袋2丁目店","prefecture_id":13,"address":"豊島区東池袋2-23-2","address2":"東池袋Qビル","latitude":"35.731245","longitude":"139.721904","phone_number":"03-5956-5731","place_type":1}, {"name":"まいばすけっと東大島駅前店","prefecture_id":13,"address":"江東区大島9-4-1","address2":"東大島ファミールハイツ1号館","latitude":"35.691147","longitude":"139.844588","phone_number":"03-5627-8871","place_type":1}, {"name":"まいばすけっと東葛西2丁目店","prefecture_id":13,"address":"江戸川区東葛西2-26-19","address2":"メゾンドプリシア","latitude":"35.667154","longitude":"139.877774","phone_number":"03-5679-5075","place_type":1}, {"name":"まいばすけっと王子駅北口店","prefecture_id":13,"address":"北区岸町1-1-7","address2":"王子新扇屋ビル","latitude":"35.753274","longitude":"139.736614","phone_number":"03-5963-6551","place_type":1}, {"name":"まいばすけっと東葛西5丁目店","prefecture_id":13,"address":"江戸川区東葛西5-37-16","address2":"小峰事務所","latitude":"35.663593","longitude":"139.878297","phone_number":"03-5659-0952","place_type":1}, {"name":"まいばすけっと東蒲田1丁目店","prefecture_id":13,"address":"大田区東蒲田1-2-3","address2":"パインコート梅屋敷","latitude":"35.565715","longitude":"139.728303","phone_number":"03-5713-2166","place_type":1}, {"name":"まいばすけっと東高円寺駅前店","prefecture_id":13,"address":"杉並区高円寺南1-7-23","address2":"L-GRAZIA東高円寺1F","latitude":"35.698449","longitude":"139.658195","phone_number":"03-5305-6757","place_type":1}, {"name":"まいばすけっと東五軒町店","prefecture_id":13,"address":"新宿区東五軒町6-31","address2":"ライオンズマンション飯田橋","latitude":"35.708084","longitude":"139.740415","phone_number":"03-5227-8801","place_type":1}, {"name":"まいばすけっと東品川1丁目店4/22（金）オープン","prefecture_id":13,"address":"品川区東品川1-5-10","address2":"Kiinu","latitude":"35.62258","longitude":"139.743987","phone_number":"03-5781-3604","place_type":1}, {"name":"まいばすけっと東砂7丁目店","prefecture_id":13,"address":"江東区東砂7-18-10","address2":"ヴィラロイヤル南砂","latitude":"35.675423","longitude":"139.837155","phone_number":"03-5857-6205","place_type":1}, {"name":"まいばすけっと東中野1丁目店","prefecture_id":13,"address":"中野区東中野1-58-16","address2":"東中野コーポ1F","latitude":"35.705816","longitude":"139.683812","phone_number":"03-5332-6026","place_type":1}, {"name":"まいばすけっと東中延店","prefecture_id":13,"address":"品川区東中延2-7-20","address2":null,"latitude":"35.607776","longitude":"139.712321","phone_number":"03-5749-4355","place_type":1}, {"name":"まいばすけっと東四つ木2丁目店","prefecture_id":13,"address":"葛飾区東四つ木2-17-13","address2":"エスト四つ木","latitude":"35.730296","longitude":"139.845622","phone_number":"03-5671-6681","place_type":1}, {"name":"まいばすけっと碑文谷1丁目店","prefecture_id":13,"address":"目黒区碑文谷1-25-20","address2":"ベルメゾンホリグチ","latitude":"35.621307","longitude":"139.689131","phone_number":"03-5725-8242","place_type":1}, {"name":"まいばすけっと大井6丁目店","prefecture_id":13,"address":"品川区大井6-9-36","address2":"シャルール大井","latitude":"35.598025","longitude":"139.730714","phone_number":"03-6429-2526","place_type":1}, {"name":"まいばすけっと平井駅南店","prefecture_id":13,"address":"江戸川区平井4-12-18","address2":"KJビル","latitude":"35.706675","longitude":"139.843685","phone_number":"03-5858-0031","place_type":1}, {"name":"まいばすけっと深川2丁目店","prefecture_id":13,"address":"江東区深川2-30-9","address2":"ウガイビル","latitude":"35.676261","longitude":"139.79977","phone_number":"03-5639-9967","place_type":1}, {"name":"まいばすけっと富士見台駅北店","prefecture_id":13,"address":"練馬区貫井3-15-2","address2":"Respire","latitude":"35.736276","longitude":"139.629857","phone_number":"03-3577-8911","place_type":1}, {"name":"まいばすけっと富士見台駅南店","prefecture_id":13,"address":"練馬区貫井3-3-10","address2":"富士屋ビル","latitude":"35.735331","longitude":"139.628924","phone_number":"03-3577-9522","place_type":1}, {"name":"まいばすけっと富士見台千川通り店","prefecture_id":13,"address":"中野区上鷺宮4-14-19","address2":null,"latitude":"35.734154","longitude":"139.629807","phone_number":"03-3577-8675","place_type":1}, {"name":"まいばすけっと二葉2丁目店","prefecture_id":13,"address":"品川区二葉2-4-20","address2":"グレイスビル","latitude":"35.604907","longitude":"139.725653","phone_number":"03-5750-5161","place_type":1}, {"name":"まいばすけっと文京大塚6丁目店","prefecture_id":13,"address":"文京区大塚6-7-4","address2":"グランドムール小石川","latitude":"35.726507","longitude":"139.726549","phone_number":"03-5319-3805","place_type":1}, {"name":"まいばすけっと文京東大前店","prefecture_id":13,"address":"文京区向丘2-11-11","address2":"荒田ビル","latitude":"35.720005","longitude":"139.756719","phone_number":"03-5834-9385","place_type":1}, {"name":"まいばすけっと平和島駅北店","prefecture_id":13,"address":"大田区大森北6-15-5","address2":"ヴェント平和島","latitude":"35.579802","longitude":"139.734171","phone_number":"03-5767-5630","place_type":1}, {"name":"まいばすけっと方南町店","prefecture_id":13,"address":"杉並区堀ノ内1-3-13","address2":"ライオンズプラザ方南町","latitude":"35.684415","longitude":"139.656343","phone_number":"03-5305-5286","place_type":1}, {"name":"まいばすけっと大岡山1丁目店","prefecture_id":13,"address":"目黒区大岡山1-3-5","address2":"清水屋ビル","latitude":"35.611699","longitude":"139.684232","phone_number":"03-5731-1847","place_type":1}, {"name":"まいばすけっと本郷2丁目店","prefecture_id":13,"address":"文京区本郷2-25-10","address2":"本郷秋葉ビル","latitude":"35.705396","longitude":"139.760344","phone_number":"03-5805-3486","place_type":1}, {"name":"まいばすけっと本駒込3丁目店3/11(金)オープン","prefecture_id":13,"address":"文京区本駒込3-6-22","address2":"メゾンティーナ本駒込","latitude":"35.726563","longitude":"139.753561","phone_number":"03-3822-6021","place_type":1}, {"name":"まいばすけっと本所吾妻橋駅前店","prefecture_id":13,"address":"墨田区吾妻橋2-3-13","address2":"セルウィン・ハウス","latitude":"35.708836","longitude":"139.803663","phone_number":"03-5819-0417","place_type":1}, {"name":"まいばすけっと馬込駅東店","prefecture_id":13,"address":"大田区東馬込1-23-5","address2":"JGビル","latitude":"35.597227","longitude":"139.712272","phone_number":"03-6429-2731","place_type":1}, {"name":"まいばすけっと馬込駅前店","prefecture_id":13,"address":"大田区北馬込2-32-4","address2":"U・I古径","latitude":"35.597102","longitude":"139.711449","phone_number":"03-5742-7270","place_type":1}, {"name":"まいばすけっと町屋3丁目店","prefecture_id":13,"address":"荒川区町屋3-8-7","address2":"行楽ビル","latitude":"35.74712","longitude":"139.782796","phone_number":"03-5855-1555","place_type":1}, {"name":"まいばすけっと松江1丁目店","prefecture_id":13,"address":"江戸川区松江1-7-3","address2":"グリーンパーク松江","latitude":"35.701574","longitude":"139.868135","phone_number":"03-5663-7961","place_type":1}, {"name":"まいばすけっと松島4丁目店","prefecture_id":13,"address":"江戸川区松島4-45-7","address2":"ライオンズマンション新小岩南","latitude":"35.713634","longitude":"139.859813","phone_number":"03-5661-5566","place_type":1}, {"name":"まいばすけっと松原駅前店","prefecture_id":13,"address":"世田谷区赤堤3-3-15","address2":"メゾネスト・パイン","latitude":"35.659562","longitude":"139.641709","phone_number":"03-5355-6008","place_type":1}, {"name":"まいばすけっと松原2丁目店","prefecture_id":13,"address":"世田谷区松原2-23-13","address2":"ガーシュ明大前","latitude":"35.667036","longitude":"139.650494","phone_number":"03-5355-0607","place_type":1}, {"name":"まいばすけっと大岡山駅北店","prefecture_id":13,"address":"目黒区大岡山1-6-10","address2":"ハイツベルウッド","latitude":"35.609161","longitude":"139.684518","phone_number":"03-5731-3345","place_type":1}, {"name":"まいばすけっと三河島駅前店","prefecture_id":13,"address":"荒川区東日暮里3-41-8","address2":"三河島NTビル","latitude":"35.732416","longitude":"139.778922","phone_number":"03-5615-5211","place_type":1}, {"name":"まいばすけっと瑞江駅前店","prefecture_id":13,"address":"江戸川区瑞江2-3-7","address2":"久八ビル","latitude":"35.693204","longitude":"139.898602","phone_number":"03-5666-7021","place_type":1}, {"name":"まいばすけっと三田2丁目店","prefecture_id":13,"address":"港区三田2-11-15","address2":"三田川崎ビル","latitude":"35.650338","longitude":"139.744481","phone_number":"03-5765-5031","place_type":1}, {"name":"まいばすけっと三田駅東店","prefecture_id":13,"address":"港区芝2-29-12","address2":"トーホー東京芝ビル","latitude":"35.649503","longitude":"139.752711","phone_number":"03-5444-5525","place_type":1}, {"name":"まいばすけっと南阿佐ヶ谷すずらん通り店","prefecture_id":13,"address":"杉並区阿佐谷南1-9-12","address2":"エコービル","latitude":"35.69928","longitude":"139.638085","phone_number":"03-5305-6880","place_type":1}, {"name":"まいばすけっと南大井店","prefecture_id":13,"address":"品川区南大井3-8-18","address2":"レジデンス大森","latitude":"35.591373","longitude":"139.733798","phone_number":"03-5767-5280","place_type":1}, {"name":"まいばすけっと南大井3丁目店","prefecture_id":13,"address":"品川区南大井3丁目15-2","address2":"誠ビル","latitude":"35.589979","longitude":"139.734895","phone_number":"03-5753-8903","place_type":1}, {"name":"まいばすけっと南大塚3丁目店","prefecture_id":13,"address":"豊島区南大塚3-20-6","address2":"大塚FTビル","latitude":"35.729818","longitude":"139.726321","phone_number":"03-5928-5825","place_type":1}, {"name":"まいばすけっと南葛西2丁目店","prefecture_id":13,"address":"江戸川区南葛西2-23-16","address2":"メゾンコダカ","latitude":"35.651997","longitude":"139.876056","phone_number":"03-5676-6051","place_type":1}, {"name":"まいばすけっと南烏山4丁目店","prefecture_id":13,"address":"世田谷区南烏山4-13-10","address2":"サニーパレス松美屋","latitude":"35.670107","longitude":"139.600634","phone_number":"03-5314-2036","place_type":1}, {"name":"まいばすけっと大久保店","prefecture_id":13,"address":"新宿区百人町2-27-7","address2":"ハンドレットサーカス","latitude":"35.702319","longitude":"139.695536","phone_number":"03-5348-7270","place_type":1}, {"name":"まいばすけっと南蒲田1丁目店","prefecture_id":13,"address":"大田区南蒲田1-6-14","address2":"ウェーブ・K","latitude":"35.559474","longitude":"139.72622","phone_number":"03-5744-3207","place_type":1}, {"name":"まいばすけっと南小岩1丁目店","prefecture_id":13,"address":"江戸川区南小岩1-9-5","address2":"ラウレア","latitude":"35.720081","longitude":"139.886585","phone_number":"03-5622-2025","place_type":1}, {"name":"まいばすけっと南小岩5丁目店","prefecture_id":13,"address":"江戸川区南小岩5-17-16","address2":"森木ビル","latitude":"35.727135","longitude":"139.881994","phone_number":"03-5612-1167","place_type":1}, {"name":"まいばすけっと南小岩8丁目店","prefecture_id":13,"address":"江戸川区南小岩8-9-5","address2":"宝生ビルT","latitude":"35.731937","longitude":"139.884418","phone_number":"03-5612-1338","place_type":1}, {"name":"まいばすけっと南品川3丁目店","prefecture_id":13,"address":"品川区南品川3-6-53","address2":"レジディア南品川","latitude":"35.610079","longitude":"139.74446","phone_number":"03-5495-9517","place_type":1}, {"name":"まいばすけっと南篠崎町4丁目店","prefecture_id":13,"address":"江戸川区南篠崎町4-5-11","address2":"エクセレント瑞江","latitude":"35.697382","longitude":"139.900316","phone_number":"03-5664-1101","place_type":1}, {"name":"まいばすけっと南砂2丁目店","prefecture_id":13,"address":"江東区南砂2-28-3","address2":"山英ビル","latitude":"35.675598","longitude":"139.821793","phone_number":"03-5653-5012","place_type":1}, {"name":"まいばすけっと南千住駅南店","prefecture_id":13,"address":"荒川区南千住2-32-6","address2":"ダイアモンドビル","latitude":"35.730453","longitude":"139.798471","phone_number":"03-5615-0766","place_type":1}, {"name":"まいばすけっと南田中1丁目店","prefecture_id":13,"address":"練馬区南田中1-13-12","address2":"プレミーナコート","latitude":"35.731201","longitude":"139.618172","phone_number":"03-5923-6707","place_type":1}, {"name":"まいばすけっと南長崎2丁目店","prefecture_id":13,"address":"豊島区南長崎2-1-3","address2":"片山ビル","latitude":"35.722956","longitude":"139.690455","phone_number":"03-5988-0306","place_type":1}, {"name":"まいばすけっと大崎駅前店","prefecture_id":13,"address":"品川区大崎2-11","address2":"大崎ウィズシティテラス","latitude":"35.616811","longitude":"139.729486","phone_number":"03-5719-5715","place_type":1}, {"name":"まいばすけっと南長崎5丁目店","prefecture_id":13,"address":"豊島区南長崎5-8-12","address2":"TARO'S","latitude":"35.727566","longitude":"139.682247","phone_number":"03-3565-9701","place_type":1}, {"name":"まいばすけっと南馬込店","prefecture_id":13,"address":"大田区南馬込2-5-3","address2":"アドバンスシティ大森1F","latitude":"35.590559","longitude":"139.718571","phone_number":"03-5743-7246","place_type":1}, {"name":"まいばすけっと南馬込5丁目店","prefecture_id":13,"address":"大田区南馬込5-18-12","address2":"ドラゴンハイムU","latitude":"35.587934","longitude":"139.70842","phone_number":"03-5742-7833","place_type":1}, {"name":"まいばすけっと三ノ輪店","prefecture_id":13,"address":"荒川区東日暮里1-17-7","address2":"第二中屋ビル","latitude":"35.730078","longitude":"139.790211","phone_number":"03-5615-3230","place_type":1}, {"name":"まいばすけっと向原駅北店","prefecture_id":13,"address":"豊島区東池袋2-13-14","address2":"マルヤス機械ビル","latitude":"35.731057","longitude":"139.725235","phone_number":"03-5953-1270","place_type":1}, {"name":"まいばすけっと武蔵関駅南口店","prefecture_id":13,"address":"練馬区関町北2-28-18","address2":"SSビル1","latitude":"35.727283","longitude":"139.576176","phone_number":"03-5903-5185","place_type":1}, {"name":"まいばすけっと武蔵新田駅前店","prefecture_id":13,"address":"大田区矢口1-16-22","address2":"セントラルフォレスト","latitude":"35.56762","longitude":"139.691718","phone_number":"03-5741-5227","place_type":1}, {"name":"まいばすけっと明大前店","prefecture_id":1,"address":"東京都世田谷区松原2-17-33","address2":"新光ビル","latitude":"35.66667","longitude":"139.649536","phone_number":"03-5329-4880","place_type":1}, {"name":"まいばすけっと目黒青葉台1丁目店","prefecture_id":1,"address":"東京都目黒区青葉台1-29-6","address2":"ライオンズマンション中目黒102号","latitude":"35.646843","longitude":"139.696177","phone_number":"03-5768-8046","place_type":1}, {"name":"まいばすけっと目黒太鼓橋店","prefecture_id":13,"address":"目黒区下目黒1-7-9","address2":null,"latitude":"35.632517","longitude":"139.712337","phone_number":"03-5436-7988","place_type":1}, {"name":"まいばすけっと大島駅前店","prefecture_id":13,"address":"江東区大島6-8-20","address2":"岡澤ビル","latitude":"35.689957","longitude":"139.834833","phone_number":"03-5628-5667","place_type":1}, {"name":"まいばすけっと目黒本町2丁目店","prefecture_id":13,"address":"目黒区目黒本町2-5-8","address2":"ベルポート学芸大","latitude":"35.626181","longitude":"139.694191","phone_number":"03-5725-8736","place_type":1}, {"name":"まいばすけっと目黒本町4丁目店","prefecture_id":13,"address":"目黒区目黒本町4-19-3","address2":"ハレルヤビル","latitude":"35.620732","longitude":"139.692875","phone_number":"03-5794-8890","place_type":1}, {"name":"まいばすけっと目黒本町6丁目店","prefecture_id":13,"address":"目黒区目黒本町6-12-20","address2":"コウエイマンション目黒","latitude":"35.621829","longitude":"139.695997","phone_number":"03-5794-8118","place_type":1}, {"name":"まいばすけっと目黒八雲店","prefecture_id":13,"address":"目黒区八雲1-7-21","address2":"第2ベルハウス1階","latitude":"35.618715","longitude":"139.673663","phone_number":"03-5731-1764","place_type":1}, {"name":"まいばすけっと目白台3丁目店","prefecture_id":13,"address":"文京区目白台3-15-28","address2":"Light","latitude":"35.715436","longitude":"139.724277","phone_number":"03-5978-6833","place_type":1}, {"name":"まいばすけっと矢口2丁目店","prefecture_id":13,"address":"大田区矢口2-11-24","address2":null,"latitude":"35.563237","longitude":"139.691512","phone_number":"03-5741-1035","place_type":1}, {"name":"まいばすけっと矢口渡店","prefecture_id":13,"address":"大田区多摩川1-19-8","address2":"クリスタルハイムII","latitude":"35.562557","longitude":"139.698798","phone_number":"03-5741-1747","place_type":1}, {"name":"まいばすけっと八雲4丁目店","prefecture_id":13,"address":"目黒区八雲4-5-9","address2":"八雲ハイツ","latitude":"35.62247","longitude":"139.672905","phone_number":"03-5731-3855","place_type":1}, {"name":"まいばすけっと谷中よみせ通り店4/1（金）オープン","prefecture_id":13,"address":"文京区千駄木3-39-7","address2":null,"latitude":"35.725677","longitude":"139.764163","phone_number":"03-5832-4310","place_type":1}, {"name":"まいばすけっと八広6丁目店","prefecture_id":13,"address":"墨田区八広6-52-16","address2":"八広プレインビル","latitude":"35.724565","longitude":"139.829997","phone_number":"03-5631-4577","place_type":1}, {"name":"まいばすけっと曙橋駅前店","prefecture_id":13,"address":"新宿区住吉町5-5","address2":"寿光ビル","latitude":"35.69331","longitude":"139.720931","phone_number":"03-5369-1688","place_type":1}, {"name":"まいばすけっと大島駅南店","prefecture_id":13,"address":"江東区大島5-34-20","address2":"第2宍戸マンション","latitude":"35.68921","longitude":"139.835347","phone_number":"03-5627-6886","place_type":1}, {"name":"まいばすけっと山吹町店","prefecture_id":13,"address":"新宿区山吹町333","address2":"江戸川橋アクセス","latitude":"35.707645","longitude":"139.730343","phone_number":"03-5227-5081","place_type":1}, {"name":"まいばすけっと代々木2丁目店","prefecture_id":13,"address":"2-27-16","address2":"ハイシティ代々木","latitude":"35.568286","longitude":"139.548176","phone_number":"03-5333-1552","place_type":1}, {"name":"まいばすけっと代々木八幡駅西店","prefecture_id":13,"address":"5-5","address2":"宇佐見ビル","latitude":"35.671472","longitude":"139.763609","phone_number":"03-6407-2556","place_type":1}, {"name":"まいばすけっと竜泉1丁目店","prefecture_id":13,"address":"1-33-4","address2":"東礼自動車下谷車庫","latitude":"35.73267","longitude":"139.716324","phone_number":"03-5808-1625","place_type":1}, {"name":"まいばすけっと両国駅東店","prefecture_id":13,"address":"1-4-5","address2":"S-forest","latitude":"35.692943","longitude":"139.698717","phone_number":"03-5819-0260","place_type":1}, {"name":"まいばすけっと両国横綱横丁店","prefecture_id":13,"address":"墨田区両国3-21-1","address2":"グレイスビル両国","latitude":"35.694709","longitude":"139.794098","phone_number":"03-5638-0585","place_type":1}, {"name":"まいばすけっと六郷土手店","prefecture_id":13,"address":"大田区仲六郷4-31-8","address2":"タートル仲六郷","latitude":"35.541113","longitude":"139.709031","phone_number":"03-5713-0862","place_type":1}, {"name":"まいばすけっと六本木1丁目店","prefecture_id":13,"address":"港区六本木1-7-10","address2":"パークコート六本木ヒルトップ","latitude":"35.663774","longitude":"139.740215","phone_number":"03-3568-4915","place_type":1}, {"name":"まいばすけっと早稲田鶴巻町店","prefecture_id":13,"address":"新宿区早稲田鶴巻町564","address2":"ハウゼタカスギ","latitude":"35.709434","longitude":"139.72631","phone_number":"03-5287-1826","place_type":1}, {"name":"まいばすけっと青葉台1丁目店","prefecture_id":14,"address":"横浜市青葉区青葉台1-15-14","address2":"リッチハイム青葉台","latitude":"35.547321","longitude":"139.517187","phone_number":"045-989-3980","place_type":1}, {"name":"まいばすけっと大田北馬込店","prefecture_id":13,"address":"大田区北馬込2-36-17","address2":"アリオス馬込","latitude":"35.599424","longitude":"139.710038","phone_number":"03-5746-3056","place_type":1}, {"name":"まいばすけっと青葉台2丁目店","prefecture_id":14,"address":"横浜市青葉区青葉台2-19-8","address2":"ファミール青葉台","latitude":"35.546099","longitude":"139.512382","phone_number":"045-989-4380","place_type":1}, {"name":"まいばすけっと青葉台駅前店","prefecture_id":14,"address":"横浜市青葉区青葉台2-5-11","address2":"ケンシュウ第7ビル","latitude":"35.543022","longitude":"139.515635","phone_number":"045-989-2141","place_type":1}, {"name":"まいばすけっと青葉すすき野店","prefecture_id":14,"address":"横浜市青葉区すすき野3-8-1","address2":null,"latitude":"35.579142","longitude":"139.527164","phone_number":"045-909-0086","place_type":1}, {"name":" まいばすけっと浅田2丁目店","prefecture_id":14,"address":"川崎市川崎区浅田2-15-1","address2":null,"latitude":"35.506892","longitude":"139.702385","phone_number":"044-328-7612","place_type":1}, {"name":"まいばすけっと石川町駅前店","prefecture_id":14,"address":"横浜市中区松影町1-2-3","address2":"関本ビル","latitude":"35.440089","longitude":"139.641764","phone_number":"045-680-6820","place_type":1}, {"name":"まいばすけっと石川町駅北店","prefecture_id":14,"address":"横浜市中区寿町1-1-11","address2":"興和ビル","latitude":"35.440519","longitude":"139.640962","phone_number":"045-680-0877","place_type":1}, {"name":"まいばすけっと伊勢佐木町店","prefecture_id":14,"address":"横浜市中区伊勢佐木町7-155-3","address2":"シティマンションオリエント1F","latitude":"35.437736","longitude":"139.622832","phone_number":"045-243-8790","place_type":1}, {"name":"まいばすけっと井田中ノ町店","prefecture_id":14,"address":"川崎市中原区井田中ノ町25-5","address2":"住商第二ビル","latitude":"35.565056","longitude":"139.643675","phone_number":"044-741-1180","place_type":1}, {"name":"まいばすけっと市ケ尾町店","prefecture_id":14,"address":"横浜市青葉区市ケ尾町1070-5","address2":null,"latitude":"35.549558","longitude":"139.545166","phone_number":"045-978-0126","place_type":1}, {"name":"まいばすけっと市場東中町店","prefecture_id":14,"address":"横浜市鶴見区市場東中町10-20","address2":null,"latitude":"35.51991","longitude":"139.685553","phone_number":"045-510-3257","place_type":1}, {"name":"まいばすけっと大塚駅北口店","prefecture_id":13,"address":"豊島区北大塚2-12-12","address2":"岡ビル","latitude":"35.73264","longitude":"139.728346","phone_number":"03-5907-3861","place_type":1}, {"name":"まいばすけっと潮田町店","prefecture_id":14,"address":"横浜市鶴見区潮田町2-114-9","address2":"ニューハイム東海","latitude":"35.503763","longitude":"139.687923","phone_number":"045-500-5275","place_type":1}, {"name":"まいばすけっと牛久保東1丁目店","prefecture_id":14,"address":"横浜市都筑区牛久保東1-33-44","address2":"サウザンハイムU","latitude":"35.555488","longitude":"139.582496","phone_number":"045-590-2136","place_type":1}, {"name":"まいばすけっと梅が丘店","prefecture_id":14,"address":"横浜市青葉区梅が丘19-5","address2":"ナガシマハイツ1F","latitude":"35.537512","longitude":"139.526201","phone_number":"045-979-2530","place_type":1}, {"name":"まいばすけっと浦島町店","prefecture_id":14,"address":"横浜市神奈川区浦島町2-3","address2":null,"latitude":"35.482228","longitude":"139.64191","phone_number":"045-444-1878","place_type":1}, {"name":"まいばすけっと江田駅前店","prefecture_id":14,"address":"横浜市青葉区荏田北3-1-2","address2":"向山ビル","latitude":"35.559357","longitude":"139.55099","phone_number":"045-910-3025","place_type":1}, {"name":" まいばすけっと荏田町店","prefecture_id":14,"address":"横浜市青葉区荏田町1409","address2":"若松屋ビル","latitude":"35.561448","longitude":"139.557831","phone_number":"045-910-5256","place_type":1}, {"name":"まいばすけっと荏田南店","prefecture_id":14,"address":"横浜市都筑区荏田南5-8-1","address2":null,"latitude":"35.549075","longitude":"139.560176","phone_number":"045-949-2086","place_type":1}, {"name":"まいばすけっと追分町店","prefecture_id":14,"address":"川崎市川崎区追分町1-2","address2":"安田ビル","latitude":"35.521121","longitude":"139.71312","phone_number":"044-328-6295","place_type":1}, {"name":"まいばすけっと追分町2号店","prefecture_id":14,"address":"川崎市川崎区追分町6-5","address2":null,"latitude":"35.51969","longitude":"139.715661","phone_number":"044-328-7730","place_type":1}, {"name":"まいばすけっと大倉山店","prefecture_id":14,"address":"横浜市港北区大倉山3-57-15","address2":"アネシス大倉山","latitude":"35.523466","longitude":"139.625619","phone_number":"045-543-3808","place_type":1}, {"name":"まいばすけっと大塚5丁目店","prefecture_id":13,"address":"文京区大塚5-3-13","address2":"小石川アーバン","latitude":"35.723035","longitude":"139.730801","phone_number":"03-6902-7015","place_type":1}, {"name":"まいばすけっと大口通店","prefecture_id":14,"address":"横浜市神奈川区大口通140-1","address2":"プレボアイアンス1F","latitude":"35.494394","longitude":"139.645457","phone_number":"045-439-0050","place_type":1}, {"name":"まいばすけっと大島3丁目店","prefecture_id":14,"address":"川崎市川崎区大島3-34-12","address2":"アマスビル1F","latitude":"35.520109","longitude":"139.72008","phone_number":"044-270-5977","place_type":1}, {"name":"まいばすけっと大島5丁目店","prefecture_id":14,"address":"川崎市川崎区大島5-11-13","address2":"ラポルテ511","latitude":"35.525329","longitude":"139.716547","phone_number":"044-221-5225","place_type":1}, {"name":"まいばすけっと岡沢町店","prefecture_id":14,"address":"横浜市保土ヶ谷区岡沢町309-2","address2":null,"latitude":"35.471838","longitude":"139.59739","phone_number":"045-342-1728","place_type":1}, {"name":"まいばすけっと小田3丁目店","prefecture_id":14,"address":"川崎市川崎区小田3-21-6","address2":"ミヤギ商事貸店舗","latitude":"35.51293","longitude":"139.705039","phone_number":"044-329-3020","place_type":1}, {"name":"まいばすけっと貝塚1丁目店","prefecture_id":14,"address":"川崎市川崎区貝塚1-9-2","address2":"川岸ビル","latitude":"35.525018","longitude":"139.703074","phone_number":"044-230-1031","place_type":1}, {"name":"まいばすけっと片倉町店","prefecture_id":14,"address":"横浜市神奈川区片倉2-72-12","address2":"長瀬ビル","latitude":"35.484559","longitude":"139.6024","phone_number":"045-488-4570","place_type":1}, {"name":"まいばすけっと神奈川新町駅前店","prefecture_id":14,"address":"横浜市神奈川区新町21-8","address2":"新町第1京急ビル","latitude":"35.480637","longitude":"139.639399","phone_number":"045-450-3201","place_type":1}, {"name":"まいばすけっと上小田中店","prefecture_id":14,"address":"川崎市中原区上小田中1-32-12","address2":null,"latitude":"35.593213","longitude":"139.629838","phone_number":"044-750-1470","place_type":1}, {"name":"まいばすけっと上小田中1丁目店","prefecture_id":14,"address":"川崎市中原区上小田中1-26-1","address2":null,"latitude":"35.590827","longitude":"139.633038","phone_number":"044-741-2381","place_type":1}, {"name":"まいばすけっと大鳥居駅南店","prefecture_id":13,"address":"大田区羽田1-5-15","address2":"村田運送ビル","latitude":"35.55129","longitude":"139.740975","phone_number":"03-5735-3375","place_type":1}, {"name":"まいばすけっと上小田中6丁目店","prefecture_id":14,"address":"川崎市中原区上小田中6-26-3","address2":null,"latitude":"35.581409","longitude":"139.645393","phone_number":"044-738-3187","place_type":1}, {"name":"まいばすけっと上末吉5丁目店","prefecture_id":14,"address":"横浜市鶴見区上末吉5-19-1","address2":"メゾンMK","latitude":"35.533506","longitude":"139.664829","phone_number":"045-583-1367","place_type":1}, {"name":" まいばすけっと鴨居駅西店","prefecture_id":14,"address":"横浜市緑区鴨居1-9-16","address2":"アソシエ横浜","latitude":"35.510336","longitude":"139.565995","phone_number":"045-931-3160","place_type":1}, {"name":" まいばすけっと苅宿店","prefecture_id":14,"address":"川崎市中原区苅宿36-27","address2":"小宮貸店舗","latitude":"35.562239","longitude":"139.662767","phone_number":"044-430-5106","place_type":1}, {"name":" まいばすけっと川崎池田店","prefecture_id":14,"address":"川崎市川崎区池田2-1-10","address2":"ナイスアーバンスクエア川崎101","latitude":"35.5194","longitude":"139.69014","phone_number":"044-328-7623","place_type":1}, {"name":"まいばすけっと川崎池藤橋店 ","prefecture_id":14,"address":"川崎市川崎区池上新町1-1-8","address2":null,"latitude":"35.52439","longitude":"139.725916","phone_number":"044-280-0630","place_type":1}, {"name":"まいばすけっと川崎駅東店","prefecture_id":14,"address":"川崎市川崎区東田町4-11","address2":"トラストワンビル16","latitude":"35.529242","longitude":"139.702612","phone_number":"044-233-7161","place_type":1}, {"name":"まいばすけっと川崎榎町店","prefecture_id":14,"address":"川崎市川崎区榎町9-21","address2":"UR都市機構堀之内住宅","latitude":"35.531878","longitude":"139.706795","phone_number":"044-221-0588","place_type":1}, {"name":" まいばすけっと川崎小倉店","prefecture_id":14,"address":"川崎市幸区小倉4丁目12番35号","address2":null,"latitude":"35.538222","longitude":"139.672136","phone_number":"044-580-6530","place_type":1}, {"name":"まいばすけっと川崎大島店","prefecture_id":14,"address":"川崎市川崎区大島1-25-1","address2":"サンビームハタ1F","latitude":"35.525518","longitude":"139.71262","phone_number":"044-221-0411","place_type":1}, {"name":"まいばすけっと大森駅前店","prefecture_id":13,"address":"品川区南大井6-16-10","address2":"第2下川ビル1Ｆ","latitude":"35.590634","longitude":"139.730268","phone_number":"03-5767-6588","place_type":1}, {"name":"まいばすけっと川崎観音店","prefecture_id":14,"address":"川崎市川崎区観音1-5-6","address2":null,"latitude":"35.529314","longitude":"139.726488","phone_number":"044-280-0542","place_type":1}, {"name":" まいばすけっと川崎北見方店","prefecture_id":14,"address":"川崎市高津区北見方1-30-3","address2":null,"latitude":"35.598732","longitude":"139.629952","phone_number":"044-850-8772","place_type":1}, {"name":" まいばすけっと川崎さつき橋店","prefecture_id":14,"address":"川崎市川崎区境町1-1","address2":"林ビル","latitude":"35.525237","longitude":"139.706748","phone_number":"044-221-5610","place_type":1}, {"name":" まいばすけっと川崎大師駅前店","prefecture_id":14,"address":"川崎市川崎区大師駅前1-6-17","address2":"パークホームズ川崎大師表参道","latitude":"35.535","longitude":"139.727155","phone_number":"044-270-1317","place_type":1}, {"name":" まいばすけっと川崎宮内店","prefecture_id":14,"address":"川崎市中原区宮内2-1-7","address2":null,"latitude":"35.587108","longitude":"139.641543","phone_number":"044-741-1671","place_type":1}, {"name":" まいばすけっと川崎本町2丁目店","prefecture_id":14,"address":"川崎市川崎区本町2-9-2","address2":"トップ川崎第2","latitude":"35.533789","longitude":"139.705198","phone_number":"044-221-2018","place_type":1}, {"name":" まいばすけっと川崎下平間店","prefecture_id":14,"address":"川崎市幸区下平間32","address2":"大平ビル1階","latitude":"35.553425","longitude":"139.679308","phone_number":"044-542-6472","place_type":1}, {"name":" まいばすけっと川和町駅前店","prefecture_id":14,"address":"横浜市都筑区川和町1250-3","address2":"ガーデンプラザ川和EAST","latitude":"35.528044","longitude":"139.549524","phone_number":"045-929-2885","place_type":1}, {"name":" まいばすけっと観音2丁目店","prefecture_id":14,"address":"川崎市川崎区観音2-10-7","address2":"マルゴハイツ","latitude":"35.529439","longitude":"139.729646","phone_number":"044-280-0977","place_type":1}, {"name":" まいばすけっと北見方3丁目店","prefecture_id":14,"address":"川崎市高津区北見方3-6-35","address2":null,"latitude":"35.596957","longitude":"139.632046","phone_number":"044-820-8467","place_type":1}, {"name":"まいばすけっと大森北2丁目店","prefecture_id":13,"address":"大田区大森北2-4-18","address2":"大森ビル","latitude":"35.585118","longitude":"139.731279","phone_number":"03-5762-8051","place_type":1}, {"name":" まいばすけっと北谷町店","prefecture_id":14,"address":"川崎市中原区北谷町54番地","address2":null,"latitude":"35.562321","longitude":"139.670556","phone_number":"044-543-5582","place_type":1}, {"name":" まいばすけっと京町1丁目店","prefecture_id":14,"address":"川崎市川崎区京町1-18-2","address2":null,"latitude":"35.517524","longitude":"139.694922","phone_number":"044-328-7296","place_type":1}, {"name":" まいばすけっと久地2丁目店","prefecture_id":14,"address":"川崎市高津区久地2-7-18","address2":null,"latitude":"35.612062","longitude":"139.608576","phone_number":"044-820-2022","place_type":1}, {"name":" まいばすけっと鋼管通1丁目店","prefecture_id":14,"address":"川崎市川崎区鋼管通1丁目14-1","address2":null,"latitude":"35.516896","longitude":"139.713159","phone_number":"044-328-7817","place_type":1}, {"name":"まいばすけっと鋼管通3丁目店","prefecture_id":14,"address":"川崎市川崎区鋼管通3-1-3","address2":"アサヒハイツ","latitude":"35.514852","longitude":"139.714537","phone_number":"044-328-7590","place_type":1}, {"name":"まいばすけっと港南中央通店","prefecture_id":14,"address":"横浜市港南区港南中央通7-19","address2":"ワミレスウエストビル","latitude":"35.399683","longitude":"139.588398","phone_number":"045-849-1256","place_type":1}, {"name":"まいばすけっと港北樽町店","prefecture_id":14,"address":"横浜市港北区樽町1-21-16","address2":"ピエス綱島","latitude":"35.529884","longitude":"139.63704","phone_number":"045-547-1117","place_type":1}, {"name":" まいばすけっと黄金町駅北店","prefecture_id":14,"address":"横浜市中区初音町3-45-2","address2":"エクセル初音町","latitude":"35.441211","longitude":"139.623663","phone_number":"045-250-0260","place_type":1}, {"name":" まいばすけっと黄金町駅南店","prefecture_id":14,"address":"横浜市南区白金町1-6","address2":"山野ビル","latitude":"35.439519","longitude":"139.622843","phone_number":"045-250-5625","place_type":1}, {"name":" まいばすけっと小島新田店","prefecture_id":14,"address":"川崎市川崎区田町2-4-13","address2":"グロス・ヴュー・スクエア・アルタイムV","latitude":"35.533656","longitude":"139.744934","phone_number":"044-280-2176","place_type":1}, {"name":"まいばすけっと大森北4丁目店","prefecture_id":13,"address":"大田区大森北4-18-3","address2":"ヴェント大森","latitude":"35.583918","longitude":"139.725585","phone_number":"03-5767-6401","place_type":1}, {"name":" まいばすけっと小杉町1丁目店","prefecture_id":14,"address":"川崎市中原区小杉町1丁目517","address2":"エルマーナS\u0026Y","latitude":"35.579057","longitude":"139.659011","phone_number":"044-738-0097","place_type":1}, {"name":" まいばすけっと子安駅前店","prefecture_id":14,"address":"横浜市神奈川区子安通1-105","address2":"ソレアード子安通","latitude":"35.484703","longitude":"139.646285","phone_number":"045-450-2237","place_type":1}, {"name":" まいばすけっと潮見橋店","prefecture_id":14,"address":"横浜市鶴見区鶴見中央4-9-17","address2":"プラウドフラット鶴見I","latitude":"35.505591","longitude":"139.678815","phone_number":"045-500-6488","place_type":1}, {"name":" まいばすけっと尻手駅前店","prefecture_id":14,"address":"川崎市幸区南幸町三丁目104","address2":"尻手駅前ビル","latitude":"35.5308","longitude":"139.684697","phone_number":"044-520-9802","place_type":1}, {"name":" まいばすけっと篠原西町店","prefecture_id":14,"address":"横浜市港北区篠原西町18-14","address2":"パークサイド田中","latitude":"35.492838","longitude":"139.620568","phone_number":"045-438-2560","place_type":1}, {"name":" まいばすけっと下小田中店","prefecture_id":14,"address":"川崎市中原区下小田中6-6-17","address2":"メープル中原","latitude":"35.573919","longitude":"139.637806","phone_number":"044-740-6717","place_type":1}, {"name":"まいばすけっと下作延店","prefecture_id":14,"address":"川崎市高津区下作延3-24-35","address2":"NTT大塚営業所","latitude":"35.591469","longitude":"139.596984","phone_number":"044-870-0281","place_type":1}, {"name":" まいばすけっと下作延2丁目店","prefecture_id":14,"address":"川崎市高津区下作延2-37-38","address2":"ライオンズシティ梶が谷","latitude":"35.593891","longitude":"139.60233","phone_number":"044-870-1161","place_type":1}, {"name":" まいばすけっと下作延3丁目店","prefecture_id":14,"address":"川崎市高津区下作延3-3-10","address2":"スルバリエ梶ヶ谷","latitude":"35.596652","longitude":"139.600583","phone_number":"044-871-7355","place_type":1}, {"name":" まいばすけっと下作延5丁目店","prefecture_id":14,"address":"川崎市高津区下作延5-5-6","address2":null,"latitude":"35.60042","longitude":"139.600944","phone_number":"044-870-5575","place_type":1}, {"name":"まいばすけっと大森北5丁目店","prefecture_id":13,"address":"大田区大森北5-6-27","address2":null,"latitude":"35.581627","longitude":"139.727268","phone_number":"03-5767-6235","place_type":1}, {"name":"まいばすけっと下新城2丁目店","prefecture_id":14,"address":"川崎市中原区下新城2-6-32","address2":"なとりレジデンス下新城","latitude":"35.577904","longitude":"139.632259","phone_number":"044-753-5051","place_type":1}, {"name":"まいばすけっと下田町6丁目店","prefecture_id":14,"address":"横浜市港北区下田町6-3-3","address2":null,"latitude":"35.558283","longitude":"139.628801","phone_number":"045-560-1482","place_type":1}, {"name":"まいばすけっと宿河原駅東店","prefecture_id":14,"address":"川崎市多摩区宿河原4-25-36","address2":"大成ニューマンション","latitude":"35.615257","longitude":"139.581731","phone_number":"044-931-2253","place_type":1}, {"name":" まいばすけっとしらとり台店","prefecture_id":14,"address":"横浜市青葉区しらとり台2-4","address2":"フェリーチェ青葉台","latitude":"35.538336","longitude":"139.516793","phone_number":"045-988-5377","place_type":1}, {"name":" まいばすけっと白幡南町店","prefecture_id":14,"address":"横浜市神奈川区白幡南町20-6","address2":"裕マンション","latitude":"35.485867","longitude":"139.635677","phone_number":"045-439-0137","place_type":1}, {"name":"まいばすけっと新川通店","prefecture_id":14,"address":"川崎市川崎区新川通11-17","address2":"サンシャイン新川通","latitude":"35.525587","longitude":"139.705751","phone_number":"044-244-3177","place_type":1}, {"name":" まいばすけっと新桜ヶ丘店","prefecture_id":14,"address":"横浜市保土ヶ谷区新桜ヶ丘1-21-14","address2":null,"latitude":"35.452212","longitude":"139.563007","phone_number":"045-355-2037","place_type":1}, {"name":" まいばすけっと新城1丁目店","prefecture_id":14,"address":"川崎市中原区新城1-16-7","address2":"グレース新城","latitude":"35.583951","longitude":"139.631778","phone_number":"044-740-2680","place_type":1}, {"name":" まいばすけっと新丸子西口店","prefecture_id":14,"address":"川崎市中原区新丸子町739","address2":"石田ビル","latitude":"35.580709","longitude":"139.661278","phone_number":"044-738-0346","place_type":1}, {"name":" まいばすけっと新丸子東口店","prefecture_id":14,"address":"川崎市中原区新丸子東1-781","address2":"新丸子エス・ティ・エムビル","latitude":"35.580443","longitude":"139.663158","phone_number":"044-431-3680","place_type":1}, {"name":"まいばすけっと大森北6丁目店","prefecture_id":13,"address":"大田区大森北6-3-3","address2":"マンションコイズミ","latitude":"35.580771","longitude":"139.732024","phone_number":"03-5753-7115","place_type":1}, {"name":" まいばすけっと新横浜店","prefecture_id":14,"address":"横浜市港北区新横浜1-13-18","address2":"プリマヴェーラ新横浜","latitude":"35.50298","longitude":"139.610607","phone_number":"045-477-3485","place_type":1}, {"name":" まいばすけっと新横浜環状2号店","prefecture_id":14,"address":"横浜市港北区新横浜1-17-12","address2":"IWATAビル","latitude":"35.50392","longitude":"139.610116","phone_number":"045-478-6475","place_type":1}, {"name":" まいばすけっと新横浜1丁目店","prefecture_id":14,"address":"横浜市港北区新横浜1丁目18-3","address2":"エトワールII","latitude":"35.504692","longitude":"139.610599","phone_number":"045-471-7967","place_type":1}, {"name":"まいばすけっと末吉町2丁目店","prefecture_id":14,"address":"横浜市中区末吉町2-36-1","address2":"東光伊勢佐木ビル","latitude":"35.440911","longitude":"139.626485","phone_number":"045-250-0711","place_type":1}, {"name":"まいばすけっと杉田1丁目店","prefecture_id":14,"address":"横浜市磯子区杉田1-15-32","address2":null,"latitude":"35.383688","longitude":"139.617556","phone_number":"045-770-0288","place_type":1}, {"name":"まいばすけっと杉田駅南店","prefecture_id":14,"address":"横浜市磯子区杉田3-9-12","address2":null,"latitude":"35.38148","longitude":"139.61637","phone_number":"045-770-1606","place_type":1}, {"name":" まいばすけっとセンター南店","prefecture_id":14,"address":"横浜市都筑区茅ヶ崎中央12-16","address2":null,"latitude":"35.542134","longitude":"139.574527","phone_number":"045-949-3982","place_type":1}, {"name":" まいばすけっと千丸台団地前店","prefecture_id":14,"address":"横浜市保土ヶ谷区新井町460-4","address2":null,"latitude":"35.49044","longitude":"139.552091","phone_number":"045-372-1638","place_type":1}, {"name":"まいばすけっと高田駅前店","prefecture_id":14,"address":"横浜市港北区高田東3-1-4","address2":null,"latitude":"35.549909","longitude":"139.619816","phone_number":"045-541-0281","place_type":1}, {"name":" まいばすけっと高田西店","prefecture_id":14,"address":"横浜市港北区高田西4-1-1","address2":"倉田屋ビル1F","latitude":"35.552611","longitude":"139.613642","phone_number":"045-590-3498","place_type":1}, {"name":"まいばすけっと阿佐谷南1丁目店","prefecture_id":13,"address":"杉並区阿佐谷南1-6-3","address2":"山田ビル","latitude":"35.698216","longitude":"139.641235","phone_number":"03-5307-8555","place_type":1}, {"name":"まいばすけっと大森中央店","prefecture_id":13,"address":"大田区中央3-26-22","address2":null,"latitude":"35.57558","longitude":"139.719006","phone_number":"03-5742-7812","place_type":1}, {"name":" まいばすけっと田尻町店","prefecture_id":14,"address":"川崎市中原区田尻町38","address2":"メゾンドキッカ","latitude":"35.56081","longitude":"139.672931","phone_number":"044-540-1040","place_type":1}, {"name":"まいばすけっと多摩高校前店","prefecture_id":14,"address":"川崎市多摩区宿河原5-15-11","address2":null,"latitude":"35.616012","longitude":"139.584472","phone_number":"044-930-6071","place_type":1}, {"name":" まいばすけっと反町駅北店","prefecture_id":14,"address":"横浜市神奈川区松本町1-7-2","address2":"シャンボール反町","latitude":"35.475854","longitude":"139.625559","phone_number":"045-317-8760","place_type":1}, {"name":" まいばすけっと千年店","prefecture_id":14,"address":"川崎市高津区千年605","address2":null,"latitude":"35.577129","longitude":"139.629273","phone_number":"044-753-0238","place_type":1}, {"name":" まいばすけっと茅ケ崎南2丁目店","prefecture_id":14,"address":"横浜市都筑区茅ケ崎南2-14-19","address2":null,"latitude":"35.537241","longitude":"139.579341","phone_number":"045-949-2510","place_type":1}, {"name":" まいばすけっと土橋1丁目店","prefecture_id":14,"address":"川崎市宮前区土橋1-4-5","address2":"ディアコート宮前平1F","latitude":"35.585817","longitude":"139.577889","phone_number":"044-862-8735","place_type":1}, {"name":"まいばすけっと綱島西店","prefecture_id":14,"address":"横浜市港北区綱島西2-13-3","address2":"中銀綱島マンシオン","latitude":"35.536537","longitude":"139.630824","phone_number":"045-533-3075","place_type":1}, {"name":" まいばすけっと綱島西2丁目店","prefecture_id":14,"address":"横浜市港北区綱島西2-7-18","address2":"ニックハイム綱島第2","latitude":"35.53627","longitude":"139.631838","phone_number":"045-540-2512","place_type":1}, {"name":" まいばすけっと綱島東店","prefecture_id":14,"address":"横浜市港北区綱島東1-22-25","address2":"ヒカリマンションパート","latitude":"35.536817","longitude":"139.639879","phone_number":"045-533-1257","place_type":1}, {"name":" まいばすけっと綱島東5丁目店","prefecture_id":14,"address":"横浜市港北区綱島東5-8-26","address2":"GSハイム","latitude":"35.540336","longitude":"139.650222","phone_number":"045-549-5786","place_type":1}, {"name":"まいばすけっと大森中店","prefecture_id":13,"address":"大田区大森中2-15-25","address2":"サンハイムカワマン","latitude":"35.567334","longitude":"139.735241","phone_number":"03-5767-7186","place_type":1}, {"name":" まいばすけっと鶴ヶ峰駅北店","prefecture_id":14,"address":"横浜市旭区鶴ヶ峰2-30-9","address2":null,"latitude":"35.47538","longitude":"139.549183","phone_number":"045-370-1021","place_type":1}, {"name":" まいばすけっと鶴見市場店","prefecture_id":14,"address":"横浜市鶴見区市場上町1-3","address2":"パークハイツ1F","latitude":"35.518608","longitude":"139.686903","phone_number":"045-508-7073","place_type":1}, {"name":"まいばすけっと鶴見駅西口店","prefecture_id":14,"address":"横浜市鶴見区豊岡町13-41","address2":"シルト豊岡","latitude":"35.510204","longitude":"139.674477","phone_number":"045-574-5970","place_type":1}, {"name":"まいばすけっと鶴見駅東口店","prefecture_id":14,"address":"横浜市鶴見区鶴見中央1-19-6","address2":"パスコマンション","latitude":"35.509656","longitude":"139.678035","phone_number":"045-506-0551","place_type":1}, {"name":"まいばすけっと鶴見栄町通店","prefecture_id":14,"address":"横浜市鶴見区栄町通1-10-15","address2":"盛田ビル","latitude":"35.507098","longitude":"139.692556","phone_number":"045-510-4930","place_type":1}, {"name":"まいばすけっと鶴見中央1丁目店","prefecture_id":14,"address":"横浜市鶴見区鶴見中央1-17-14","address2":"シーアイマンション鶴見","latitude":"35.510092","longitude":"139.678682","phone_number":"045-500-4460","place_type":1}, {"name":"まいばすけっと鶴見中央5丁目店","prefecture_id":14,"address":"横浜市鶴見区鶴見中央5-7-2","address2":"プラーズ鶴見中央V","latitude":"35.504379","longitude":"139.676824","phone_number":"045-510-4470","place_type":1}, {"name":" まいばすけっと鶴見本町通店","prefecture_id":14,"address":"横浜市鶴見区本町通3-165-3","address2":null,"latitude":"35.501008","longitude":"139.684223","phone_number":"045-510-4105","place_type":1}, {"name":" まいばすけっと鶴見本町通1丁目店","prefecture_id":14,"address":"横浜市鶴見区本町通1-27-1","address2":"KYハウスX","latitude":"35.50276","longitude":"139.680348","phone_number":"045-506-3898","place_type":1}, {"name":"まいばすけっと鶴見本町通2丁目店","prefecture_id":14,"address":"横浜市鶴見区本町通2-88-2","address2":"パークハウス鶴見本町通","latitude":"35.502332","longitude":"139.68227","phone_number":"045-500-2050","place_type":1}, {"name":"まいばすけっと大森中2丁目店","prefecture_id":13,"address":"大田区大森中2-20-15","address2":"メゾンキクセイ","latitude":"35.567087","longitude":"139.732316","phone_number":"03-5767-7037","place_type":1}, {"name":"まいばすけっと天王町1丁目店","prefecture_id":14,"address":"横浜市保土ヶ谷区天王町1-22-1","address2":"荻窪ビルNo.1","latitude":"35.457565","longitude":"139.603638","phone_number":"045-348-1150","place_type":1}, {"name":" まいばすけっと戸手本町店","prefecture_id":14,"address":"川崎市幸区戸手本町2-391-1","address2":"土岐ビル","latitude":"35.540118","longitude":"139.686786","phone_number":"044-542-5622","place_type":1}, {"name":" まいばすけっととどろきアリーナ前店","prefecture_id":14,"address":"川崎市中原区宮内4-18-10","address2":null,"latitude":"35.587775","longitude":"139.64619","phone_number":"044-777-8420","place_type":1}, {"name":" まいばすけっと殿町店","prefecture_id":14,"address":"川崎市川崎区殿町1-18-2","address2":null,"latitude":"35.538433","longitude":"139.744639","phone_number":"044-280-1988","place_type":1}, {"name":" まいばすけっと戸部中央店","prefecture_id":14,"address":"横浜市西区中央1-20-10","address2":"アバン・パルク横浜","latitude":"35.455564","longitude":"139.615765","phone_number":"045-324-1202","place_type":1}, {"name":" まいばすけっと鳥山町店","prefecture_id":14,"address":"横浜市港北区鳥山町1257","address2":null,"latitude":"35.504987","longitude":"139.604758","phone_number":"045-474-2281","place_type":1}, {"name":" まいばすけっと中川駅店","prefecture_id":14,"address":"横浜市都筑区中川1-1-1","address2":"横浜市営地下鉄中川駅駅舎内","latitude":"35.563004","longitude":"139.569635","phone_number":"045-910-1396","place_type":1}, {"name":" まいばすけっと中川駅北店","prefecture_id":14,"address":"横浜市都筑区中川1-19-1","address2":"中川ＳＯビル","latitude":"35.563112","longitude":"139.570608","phone_number":"045-910-1250","place_type":1}, {"name":" まいばすけっと永田東2丁目店","prefecture_id":14,"address":"横浜市南区永田東2-10-21","address2":"山崎屋ビル","latitude":"35.437628","longitude":"139.596813","phone_number":"045-742-5811","place_type":1}, {"name":"まいばすけっと仲町台駅前店","prefecture_id":14,"address":"横浜市都筑区仲町台1-5-1","address2":"クレッセント横濱仲町台","latitude":"35.536066","longitude":"139.589015","phone_number":"045-949-6915","place_type":1}, {"name":"まいばすけっと大森西4丁目店","prefecture_id":13,"address":"大田区大森西4-11-5","address2":"ミテッツァ大森町","latitude":"35.573189","longitude":"139.72468","phone_number":"03-5753-2672","place_type":1}, {"name":"まいばすけっと仲町台駅南店","prefecture_id":14,"address":"横浜市都筑区仲町台1-2-22","address2":"プラザ仲町台センター","latitude":"35.535","longitude":"139.589387","phone_number":"045-948-3157","place_type":1}, {"name":" まいばすけっと中丸子店","prefecture_id":14,"address":"川崎市中原区中丸子529-1","address2":null,"latitude":"35.566667","longitude":"139.670431","phone_number":"044-430-1036","place_type":1}, {"name":" まいばすけっと中山駅西店","prefecture_id":14,"address":"横浜市緑区台村町205-2","address2":"トレス・カーサ","latitude":"35.515201","longitude":"139.537478","phone_number":"045-929-1166","place_type":1}, {"name":" まいばすけっと中山町店","prefecture_id":14,"address":"横浜市緑区中山町741-5-1","address2":"宮前市場ビル","latitude":"35.51048","longitude":"139.543971","phone_number":"045-929-1701","place_type":1}, {"name":" まいばすけっと生麦店","prefecture_id":14,"address":"横浜市鶴見区生麦3丁目7-6","address2":"松浦ビル","latitude":"35.494494","longitude":"139.666925","phone_number":"045-500-5092","place_type":1}, {"name":" まいばすけっと生麦駅前店","prefecture_id":14,"address":"横浜市鶴見区生麦3-7-13","address2":"マキシムIK5","latitude":"35.494697","longitude":"139.667402","phone_number":"045-500-6925","place_type":1}, {"name":" まいばすけっと生麦3丁目店","prefecture_id":14,"address":"横浜市鶴見区生麦3-16-24","address2":"ハイツアオキ第7","latitude":"35.493772","longitude":"139.671558","phone_number":"045-500-3066","place_type":1}, {"name":" まいばすけっと西谷店","prefecture_id":14,"address":"横浜市保土ヶ谷区西谷町1112-13","address2":"グリーンヴィレッヂ西谷","latitude":"35.477331","longitude":"139.565832","phone_number":"045-370-0850","place_type":1}, {"name":" まいばすけっと西谷駅前店","prefecture_id":14,"address":"横浜市保土ヶ谷区西谷町1100","address2":"レユシール横浜西谷","latitude":"35.478297","longitude":"139.564787","phone_number":"045-372-0570","place_type":1}, {"name":" まいばすけっと西横浜駅前店","prefecture_id":14,"address":"横浜市西区久保町6-26","address2":null,"latitude":"35.45226","longitude":"139.608745","phone_number":"045-250-0485","place_type":1}, {"name":"まいばすけっと大森南2丁目店","prefecture_id":13,"address":"大田区大森南2-4-17","address2":"第5小山マンション","latitude":"35.562857","longitude":"139.744438","phone_number":"03-5735-1631","place_type":1}, {"name":"まいばすけっと西横浜駅東店","prefecture_id":14,"address":"横浜市西区中央2-54-2","address2":"サンライフ西横浜ビル101号室","latitude":"35.454698","longitude":"139.61283","phone_number":"045-317-3012","place_type":1}, {"name":" まいばすけっと日進町店","prefecture_id":14,"address":"川崎市川崎区日進町27-6","address2":"アライヴ・ヒロ1F","latitude":"35.522527","longitude":"139.693872","phone_number":"044-230-0012","place_type":1}, {"name":"まいばすけっと日進町市電通り店","prefecture_id":14,"address":"川崎市川崎区日進町17-3","address2":"喜美代コーポ","latitude":"35.525159","longitude":"139.695819","phone_number":"044-221-1005","place_type":1}, {"name":"まいばすけっと野庭町店","prefecture_id":14,"address":"横浜市港南区野庭町679-8","address2":"トミーズビル","latitude":"35.391631","longitude":"139.56658","phone_number":"045-840-1062","place_type":1}, {"name":" まいばすけっと登戸駅南店","prefecture_id":14,"address":"川崎市多摩区登戸3163","address2":"三竹マンション","latitude":"35.617512","longitude":"139.572087","phone_number":"044-922-2212","place_type":1}, {"name":"まいばすけっと白楽駅前店","prefecture_id":14,"address":"横浜市神奈川区白楽100-25","address2":null,"latitude":"35.488869","longitude":"139.627878","phone_number":"045-430-1051","place_type":1}, {"name":"まいばすけっと初音町1丁目店","prefecture_id":14,"address":"横浜市中区初音町1-2-9","address2":"ライオンズマンション野毛山公園南","latitude":"35.441972","longitude":"139.624732","phone_number":"045-250-0228","place_type":1}, {"name":" まいばすけっと阪東橋店","prefecture_id":14,"address":"横浜市南区高根町3-17-4","address2":"サンコート大通り公園","latitude":"35.437111","longitude":"139.625041","phone_number":"045-250-0267","place_type":1}, {"name":"まいばすけっと阪東橋駅前店","prefecture_id":14,"address":"横浜市中区弥生町4-44","address2":"千歳観光阪東橋ビル","latitude":"35.43802","longitude":"139.625079","phone_number":"045-250-3731","place_type":1}, {"name":" まいばすけっと東白楽駅前店","prefecture_id":14,"address":"横浜市神奈川区西神奈川1-17-4","address2":null,"latitude":"35.481592","longitude":"139.631017","phone_number":"045-438-3490","place_type":1}, {"name":"まいばすけっと大森郵便局前店","prefecture_id":13,"address":"大田区山王3-6-27","address2":"コンシェリア大森山王","latitude":"35.582832","longitude":"139.723363","phone_number":"03-6429-2350","place_type":1}, {"name":" まいばすけっと東蒔田町店","prefecture_id":14,"address":"横浜市南区東蒔田町15-3","address2":"芹沢ビル","latitude":"35.43049","longitude":"139.617077","phone_number":"045-722-3186","place_type":1}, {"name":"まいばすけっと東門前1丁目店","prefecture_id":14,"address":"川崎市川崎区東門前1-1-8","address2":"島田ビル","latitude":"35.534711","longitude":"139.732624","phone_number":"044-280-1266","place_type":1}, {"name":" まいばすけっと東門前3丁目店","prefecture_id":14,"address":"川崎市川崎区東門前3-11-19","address2":"太陽マンション","latitude":"35.534253","longitude":"139.736504","phone_number":"044-270-1216","place_type":1}, {"name":" まいばすけっと日野8丁目店","prefecture_id":14,"address":"横浜市港南区日野8-4-17","address2":"日野インタービル","latitude":"35.384351","longitude":"139.579154","phone_number":"045-844-9081","place_type":1}, {"name":" まいばすけっと日吉2丁目店","prefecture_id":14,"address":"横浜市港北区日吉2-16-25","address2":"ニュー日吉マンション","latitude":"35.55728","longitude":"139.647014","phone_number":"045-566-7730","place_type":1}, {"name":" まいばすけっと日吉7丁目店","prefecture_id":14,"address":"横浜市港北区日吉7-12-5","address2":"エクセルシオール日吉","latitude":"35.546121","longitude":"139.650878","phone_number":"045-566-6656","place_type":1}, {"name":"まいばすけっと日吉本町3丁目店","prefecture_id":14,"address":"横浜市港北区日吉本町3-33-43","address2":"日管ハイム第5","latitude":"35.550326","longitude":"139.636557","phone_number":"045-560-1229","place_type":1}, {"name":"まいばすけっと日吉本町4丁目店","prefecture_id":14,"address":"横浜市港北区日吉本町4-23-60","address2":"マルヨマンション","latitude":"35.548845","longitude":"139.631674","phone_number":"045-566-6681","place_type":1}, {"name":"まいばすけっと平沼1丁目店","prefecture_id":14,"address":"横浜市西区平沼1-3-13","address2":"大勝ビル","latitude":"35.460481","longitude":"139.620415","phone_number":"045-290-3325","place_type":1}, {"name":"まいばすけっと平沼高校前店","prefecture_id":14,"address":"横浜市西区岡野1-2-7","address2":"浜桜コーポラス","latitude":"35.461289","longitude":"139.615902","phone_number":"045-412-3477","place_type":1}, {"name":"まいばすけっと大山駅北口店","prefecture_id":13,"address":"板橋区大山東町19-6","address2":"YKD大山","latitude":"35.748404","longitude":"139.70338","phone_number":"03-5943-3517","place_type":1}, {"name":"まいばすけっと平沼橋駅前店","prefecture_id":14,"address":"横浜市西区平沼1-19-25","address2":null,"latitude":"35.459964","longitude":"139.61702","phone_number":"045-313-0817","place_type":1}, {"name":" まいばすけっと藤崎4丁目店","prefecture_id":14,"address":"川崎市川崎区藤崎4-7-11","address2":"やまいちパレスビル","latitude":"35.525068","longitude":"139.720814","phone_number":"044-221-5016","place_type":1}, {"name":" まいばすけっと藤棚店","prefecture_id":14,"address":"横浜市西区浜松町1-18","address2":"りそな銀行横浜支店出張所","latitude":"35.451251","longitude":"139.612916","phone_number":"045-250-0430","place_type":1}, {"name":" まいばすけっと二子新地店","prefecture_id":14,"address":"川崎市高津区諏訪1-9-23","address2":"ポールメゾンII","latitude":"35.605186","longitude":"139.623327","phone_number":"044-829-0716","place_type":1}, {"name":"まいばすけっと二子1丁目店","prefecture_id":14,"address":"川崎市高津区二子1-7-17","address2":"リバーサイドマンション杉ｱ","latitude":"35.607314","longitude":"139.620686","phone_number":"044-850-3020","place_type":1}, {"name":" まいばすけっと二子4丁目店","prefecture_id":14,"address":"川崎市高津区二子4-14-5","address2":null,"latitude":"35.603612","longitude":"139.620628","phone_number":"044-812-5081","place_type":1}, {"name":" まいばすけっと蓬莱町店","prefecture_id":14,"address":"横浜市中区蓬莱町2-4-1","address2":"横浜大通り公園ビル","latitude":"35.443061","longitude":"139.634973","phone_number":"045-264-1357","place_type":1}, {"name":"まいばすけっと保土ヶ谷駅東口店","prefecture_id":14,"address":"横浜市保土ヶ谷区岩井町123-2","address2":"保土ヶ谷駅前ハイツ団地2号棟101号室","latitude":"35.445422","longitude":"139.600157","phone_number":"045-730-5380","place_type":1}, {"name":"まいばすけっと保土ヶ谷駅南店","prefecture_id":14,"address":"横浜市保土ヶ谷区帷子町2-69","address2":"家本ビル","latitude":"35.445488","longitude":"139.596849","phone_number":"045-342-0331","place_type":1}, {"name":"まいばすけっと保土ヶ谷町店","prefecture_id":14,"address":"横浜市保土ヶ谷区保土ヶ谷町1-81","address2":"横浜ハイツ","latitude":"35.444299","longitude":"139.593369","phone_number":"045-716-0030","place_type":1}, {"name":"まいばすけっと大山金井町店","prefecture_id":13,"address":"板橋区大山金井町38-2","address2":"第2大澤ビル","latitude":"35.747337","longitude":"139.704172","phone_number":"03-5964-5220","place_type":1}, {"name":"まいばすけっと保土ヶ谷橋店","prefecture_id":14,"address":"横浜市保土ヶ谷区保土ヶ谷町1-68-4","address2":null,"latitude":"35.443727","longitude":"139.595613","phone_number":"045-722-3081","place_type":1}, {"name":"まいばすけっと本牧町1丁目店","prefecture_id":14,"address":"横浜市中区本牧町1-58","address2":"ともえビル","latitude":"35.431104","longitude":"139.657744","phone_number":"045-629-0270","place_type":1}, {"name":"まいばすけっと本牧町2丁目店","prefecture_id":14,"address":"横浜市中区本牧町2-300","address2":"啓祐ビル1F","latitude":"35.430168","longitude":"139.661888","phone_number":"045-628-1750","place_type":1}, {"name":" まいばすけっと蒔田店","prefecture_id":14,"address":"横浜市南区宮元町2-41","address2":"第1金田ビル","latitude":"35.430423","longitude":"139.61107","phone_number":"045-714-0891","place_type":1}, {"name":"まいばすけっと蒔田駅北店","prefecture_id":14,"address":"横浜市南区宿町3-55-1","address2":"エスポワール蒔田","latitude":"35.430512","longitude":"139.609323","phone_number":"045-710-8755","place_type":1}, {"name":" まいばすけっと真金町1丁目店","prefecture_id":14,"address":"横浜市南区真金町1-11-10","address2":"タウンハーズA","latitude":"35.437384","longitude":"139.630251","phone_number":"045-250-5307","place_type":1}, {"name":"まいばすけっと松原商店街店","prefecture_id":14,"address":"横浜市保土ヶ谷区宮田町1-1-2","address2":"レオネクストNYT","latitude":"35.45807","longitude":"139.605831","phone_number":"045-340-2520","place_type":1}, {"name":" まいばすけっと溝口3丁目店","prefecture_id":14,"address":"川崎市高津区溝口3-13-18","address2":null,"latitude":"35.603789","longitude":"139.612498","phone_number":"044-820-1322","place_type":1}, {"name":" まいばすけっと溝口6丁目店","prefecture_id":14,"address":"川崎市高津区溝口6-23-14","address2":"エディヴェルレーヌ","latitude":"35.607061","longitude":"139.611173","phone_number":"044-850-8311","place_type":1}, {"name":" まいばすけっと溝の口南店","prefecture_id":14,"address":"川崎市高津区下作延2丁目9-43","address2":"清水屋ビル1F","latitude":"35.598857","longitude":"139.608218","phone_number":"044-870-3088","place_type":1}, {"name":"まいばすけっと荻窪駅南店","prefecture_id":13,"address":"杉並区荻窪4-32-2","address2":"東洋時計ビル","latitude":"35.704107","longitude":"139.624806","phone_number":"03-5347-4005","place_type":1}, {"name":" まいばすけっと三ツ沢上町駅東店","prefecture_id":14,"address":"横浜市神奈川区三ツ沢上町1-13","address2":"グランデ三ツ沢","latitude":"35.476321","longitude":"139.606536","phone_number":"045-326-3611","place_type":1}, {"name":" まいばすけっと三ツ沢中町店","prefecture_id":14,"address":"横浜市神奈川区三ツ沢中町5-1","address2":"アパルトマントロワバレー・サントル1F","latitude":"35.476143","longitude":"139.610552","phone_number":"045-412-2052","place_type":1}, {"name":"まいばすけっとみなとみらい店","prefecture_id":14,"address":"横浜市西区みなとみらい5-3-1","address2":"Filmee1階","latitude":"35.461572","longitude":"139.631981","phone_number":"045-228-2752","place_type":1}, {"name":" まいばすけっと南太田1丁目店","prefecture_id":14,"address":"横浜市南区南太田1-44-2","address2":"佐々木ビル","latitude":"35.43912","longitude":"139.614194","phone_number":"045-741-3055","place_type":1}, {"name":" まいばすけっと南加瀬3丁目店","prefecture_id":14,"address":"川崎市幸区南加瀬3-3-44","address2":null,"latitude":"35.545057","longitude":"139.666687","phone_number":"044-589-0541","place_type":1}, {"name":" まいばすけっと南二子店","prefecture_id":14,"address":"川崎市高津区二子4-10-6","address2":"ウィスティリア高津","latitude":"35.601651","longitude":"139.620375","phone_number":"044-829-1606","place_type":1}, {"name":" まいばすけっと箕輪町1丁目店","prefecture_id":14,"address":"横浜市港北区箕輪町1-25-27","address2":"安斉ビル","latitude":"35.548365","longitude":"139.645461","phone_number":"045-566-7022","place_type":1}, {"name":" まいばすけっと宮崎台馬絹店2/5（金）オープン","prefecture_id":14,"address":"川崎市宮前区馬絹603-3","address2":null,"latitude":"35.583559","longitude":"139.597329","phone_number":"044-870-2521","place_type":1}, {"name":" まいばすけっと宮前小台店","prefecture_id":14,"address":"川崎市宮前区小台2-21-13","address2":null,"latitude":"35.580232","longitude":"139.5812","phone_number":"044-870-2190","place_type":1}, {"name":" まいばすけっと向ヶ丘遊園駅北店","prefecture_id":14,"address":"川崎市多摩区登戸1831-1","address2":"デル・スールテラス","latitude":"35.619628","longitude":"139.563177","phone_number":"044-930-2032","place_type":1}, {"name":"まいばすけっと荻窪4丁目店","prefecture_id":13,"address":"杉並区荻窪4-31-1","address2":"NTT荻窪ビル","latitude":"35.703929","longitude":"139.62272","phone_number":"03-5347-9235","place_type":1}, {"name":"まいばすけっと向ヶ丘遊園駅前店","prefecture_id":14,"address":"川崎市多摩区登戸2088-1","address2":"サンホワイト","latitude":"35.617806","longitude":"139.563733","phone_number":"044-930-2530","place_type":1}, {"name":"まいばすけっと武蔵新城駅前店","prefecture_id":14,"address":"川崎市中原区上新城2-15-1","address2":null,"latitude":"35.587833","longitude":"139.62835","phone_number":"044-741-1085","place_type":1}, {"name":"まいばすけっと矢向5丁目店","prefecture_id":14,"address":"横浜市鶴見区矢向5-9-54","address2":"WIN","latitude":"35.537469","longitude":"139.683989","phone_number":"045-570-5132","place_type":1}, {"name":"まいばすけっと矢向6丁目店4/8（金）オープン","prefecture_id":14,"address":"横浜市鶴見区矢向6-3-1","address2":null,"latitude":"35.537091","longitude":"139.680089","phone_number":"045-580-0266","place_type":1}, {"name":"まいばすけっと山下町店","prefecture_id":14,"address":"横浜市中区山下町163","address2":"ザ・ライオンズ横濱山下町","latitude":"35.440975","longitude":"139.645031","phone_number":"045-227-5615","place_type":1}, {"name":" まいばすけっと洋光台1丁目店","prefecture_id":14,"address":"横浜市磯子区洋光台1-13-39","address2":"田中スクエアビル","latitude":"35.386382","longitude":"139.601574","phone_number":"045-836-2037","place_type":1}, {"name":" まいばすけっと洋光台3丁目店","prefecture_id":14,"address":"横浜市磯子区洋光台3-12-1","address2":"高栄プラザ洋光台","latitude":"35.38181","longitude":"139.594872","phone_number":"045-830-6027","place_type":1}, {"name":"まいばすけっと横浜青砥町店","prefecture_id":14,"address":"横浜市緑区青砥町1124-1","address2":"イチカワ1987","latitude":"35.518812","longitude":"139.545302","phone_number":"045-929-3660","place_type":1}, {"name":"まいばすけっと横浜曙町店","prefecture_id":14,"address":"横浜市中区曙町2-19-1","address2":"曙町新井ビル","latitude":"35.440797","longitude":"139.629712","phone_number":"045-250-0068","place_type":1}, {"name":"まいばすけっと横浜高山店","prefecture_id":14,"address":"横浜市都筑区高山5-1","address2":"ビューハイツ高山1階","latitude":"35.537679","longitude":"139.560066","phone_number":"045-949-1768","place_type":1}, {"name":"まいばすけっと浅草橋駅北店","prefecture_id":13,"address":"台東区浅草橋3-3-1","address2":"田村ビル","latitude":"35.700345","longitude":"139.786796","phone_number":"03-5835-3285","place_type":1}, {"name":"まいばすけっと興宮町店3/11(金)オープン","prefecture_id":13,"address":"江戸川区興宮町19-8","address2":null,"latitude":"35.725299","longitude":"139.875703","phone_number":"03-5663-2303","place_type":1}, {"name":"まいばすけっと横浜橋店","prefecture_id":14,"address":"横浜市南区真金町2-16","address2":"米田ビル","latitude":"35.437839","longitude":"139.628396","phone_number":"045-250-6083","place_type":1}, {"name":"まいばすけっと横浜富士見町店","prefecture_id":14,"address":"横浜市中区富士見町2-5","address2":"第6曙ビル","latitude":"35.439681","longitude":"139.632634","phone_number":"045-250-5235","place_type":1}, {"name":"まいばすけっと横浜松本町店","prefecture_id":1,"address":"神奈川県横浜市神奈川区松本町3-27-12","address2":"岩国ハイム","latitude":"35.476229","longitude":"139.621332","phone_number":"045-317-2795","place_type":1}, {"name":"まいばすけっと横浜大豆戸店","prefecture_id":1,"address":"神奈川県横浜市港北区大豆戸町664-2","address2":"新横浜ハイツ1階","latitude":"35.513339","longitude":"139.621998","phone_number":"045-549-5491","place_type":1}, {"name":"まいばすけっと横浜峰岡店","prefecture_id":1,"address":"神奈川県横浜市保土ヶ谷区峰岡町1-20-3","address2":"峰岡マンション1F","latitude":"35.460856","longitude":"139.597615","phone_number":"045-342-1978","place_type":1}, {"name":"まいばすけっと吉野町5丁目店","prefecture_id":1,"address":"神奈川県横浜市南区吉野町5丁目27-2","address2":"アセントマウンテン容湖","latitude":"35.434517","longitude":"139.616141","phone_number":"045-242-3738","place_type":1}, {"name":" まいばすけっと和田町駅前店","prefecture_id":14,"address":"横浜市保土ヶ谷区和田1-18-10","address2":"KNOCKS和田町","latitude":"35.464697","longitude":"139.58763","phone_number":"045-340-3370","place_type":1}, {"name":"まいばすけっと渡田山王店","prefecture_id":14,"address":"川崎市川崎区渡田山王町17-12","address2":"ノースビル","latitude":"35.518888","longitude":"139.695116","phone_number":"044-328-6275","place_type":1}, {"name":"まいばすけっと渡田向町店","prefecture_id":14,"address":"川崎市川崎区渡田向町26-8","address2":null,"latitude":"35.521682","longitude":"139.70391","phone_number":"044-245-8557","place_type":1}, {"name":"まいばすけっと奥沢8丁目店 ","prefecture_id":13,"address":"世田谷区奥沢8-31-6","address2":"山崎ビル","latitude":"35.604325","longitude":"139.661092","phone_number":"03-5758-1535","place_type":1}, {"name":"まいばすけっと押上1丁目店","prefecture_id":13,"address":"墨田区押上1-48-16","address2":"イトウビル","latitude":"35.708997","longitude":"139.81669","phone_number":"03-5819-2597","place_type":1}, {"name":"まいばすけっと押上駅前店","prefecture_id":13,"address":"墨田区押上1-18-8","address2":"パークアクシス押上","latitude":"35.711876","longitude":"139.815586","phone_number":"03-5631-7771","place_type":1}, {"name":"まいばすけっと小村井駅前店","prefecture_id":13,"address":"墨田区文花3-22-8","address2":"メゾン富士","latitude":"35.710583","longitude":"139.828175","phone_number":"03-5631-4330","place_type":1}, {"name":"まいばすけっと尾山台駅前通り店3/4(金)オープン","prefecture_id":13,"address":"世田谷区等々力2-1-10","address2":"マートルコート尾山台","latitude":"35.604622","longitude":"139.652107","phone_number":"03-5758-6031","place_type":1}, {"name":"まいばすけっと海岸3丁目店","prefecture_id":13,"address":"港区海岸3-2-15","address2":"東京ベイテラス","latitude":"35.643342","longitude":"139.75503","phone_number":"03-5765-2561","place_type":1}, {"name":"まいばすけっと学芸大学東口店","prefecture_id":13,"address":"目黒区鷹番3-4-19","address2":"江連ビル","latitude":"35.628006","longitude":"139.685062","phone_number":"03-5768-8235","place_type":1}, {"name":"まいばすけっと葛西中央通り店","prefecture_id":13,"address":"江戸川区西葛西7-29-22","address2":null,"latitude":"35.658854","longitude":"139.863595","phone_number":"03-5659-0975","place_type":1}, {"name":"まいばすけっと春日店","prefecture_id":13,"address":"文京区水道1-11-9","address2":"ハイネス小石川","latitude":"35.709309","longitude":"139.743556","phone_number":"03-5805-9322","place_type":1}, {"name":"まいばすけっと浅草橋1丁目店","prefecture_id":13,"address":"台東区浅草橋1-3-11","address2":"萬寶ビル","latitude":"35.696834","longitude":"139.783171","phone_number":"03-5833-8630","place_type":1}, {"name":"まいばすけっと春日2丁目店","prefecture_id":13,"address":"文京区春日2-19-11","address2":"ライオンズマンション小石川台","latitude":"35.711559","longitude":"139.744242","phone_number":"03-3830-7080","place_type":1}, {"name":"まいばすけっと合羽橋北店","prefecture_id":13,"address":"台東区松が谷3-20-14","address2":"ワールドヒルズ","latitude":"35.716815","longitude":"139.788242","phone_number":"03-5806-1221","place_type":1}, {"name":"まいばすけっと合羽橋南店","prefecture_id":13,"address":"台東区松が谷2-2-4","address2":"鉄鋼ハウス","latitude":"35.712641","longitude":"139.787156","phone_number":"03-5827-3717","place_type":1}, {"name":"まいばすけっと鐘ヶ淵駅南店","prefecture_id":13,"address":"墨田区墨田4-14-13","address2":"M・Iビル","latitude":"35.731123","longitude":"139.822383","phone_number":"03-5631-4078","place_type":1}, {"name":"まいばすけっと蒲田キネマ通り店","prefecture_id":13,"address":"大田区東蒲田2-26-1","address2":"コーポキネマ","latitude":"35.562101","longitude":"139.726534","phone_number":"03-5480-5770","place_type":1}, {"name":"まいばすけっと蒲田1丁目店3/4(金)オープン","prefecture_id":13,"address":"大田区蒲田1-6-16","address2":"ハイツアオキ第12","latitude":"35.567028","longitude":"139.720689","phone_number":"03-5714-5021","place_type":1}, {"name":"まいばすけっと蒲田3丁目店","prefecture_id":13,"address":"大田区蒲田3-15-13","address2":"エルムハイツ蒲田","latitude":"35.563001","longitude":"139.723814","phone_number":"03-5480-5077","place_type":1}, {"name":"まいばすけっと蒲田4丁目店","prefecture_id":13,"address":"大田区蒲田4-22-3","address2":"住友生命蒲田ビル","latitude":"35.561207","longitude":"139.720567","phone_number":"03-5480-0567","place_type":1}, {"name":"まいばすけっと蒲田5丁目店","prefecture_id":13,"address":"大田区蒲田5-27-5","address2":"メゾンマヤ1F","latitude":"35.562129","longitude":"139.720917","phone_number":"03-5744-3402","place_type":1}, {"name":"まいばすけっと上池台店","prefecture_id":13,"address":"大田区上池台3-44-1","address2":"綱島ビル","latitude":"35.592355","longitude":"139.698057","phone_number":"03-5499-7010","place_type":1}, {"name":"まいばすけっと穴守稲荷店","prefecture_id":13,"address":"大田区羽田4丁目15-7","address2":"コート・ヴェール","latitude":"35.549129","longitude":"139.746686","phone_number":"03-5735-2318","place_type":1}, {"name":"まいばすけっと上池台2丁目店","prefecture_id":13,"address":"大田区上池台2-25-10","address2":"クレストパーク洗足池","latitude":"35.598571","longitude":"139.692745","phone_number":"03-5754-5205","place_type":1}, {"name":"まいばすけっと上板橋3丁目店","prefecture_id":13,"address":"板橋区上板橋3-21-7","address2":"ニューハイム上板橋","latitude":"35.766185","longitude":"139.671797","phone_number":"03-5922-3285","place_type":1}, {"name":"まいばすけっと上馬5丁目店","prefecture_id":13,"address":"世田谷区上馬5-20-21","address2":"上馬柏ビル1F","latitude":"35.642109","longitude":"139.65555","phone_number":"03-6413-4788","place_type":1}, {"name":"まいばすけっと上大崎2丁目店","prefecture_id":13,"address":"品川区上大崎2-21-13","address2":null,"latitude":"35.637489","longitude":"139.714039","phone_number":"03-5436-7781","place_type":1}, {"name":"まいばすけっと上荻1丁目店","prefecture_id":13,"address":"杉並区上荻1-20-6","address2":"スターフィールド上荻","latitude":"35.705471","longitude":"139.617298","phone_number":"03-5347-2775","place_type":1}, {"name":"まいばすけっと上荻2丁目店","prefecture_id":13,"address":"杉並区上荻2-38-10","address2":"荻窪金子ビル","latitude":"35.709328","longitude":"139.612381","phone_number":"03-5303-6707","place_type":1}, {"name":"まいばすけっと上落合店","prefecture_id":13,"address":"中野区東中野4-25-5","address2":"三越東中野マンション","latitude":"35.709524","longitude":"139.687425","phone_number":"03-5348-6377","place_type":1}, {"name":"まいばすけっと上北沢4丁目店","prefecture_id":13,"address":"世田谷区上北沢4-12-8","address2":"鳴川ビル","latitude":"35.669135","longitude":"139.625151","phone_number":"03-5357-9317","place_type":1}, {"name":"まいばすけっと上高田2丁目店4/29（金）オープン","prefecture_id":13,"address":"中野区上高田2-41-6","address2":"中野花園ビル","latitude":"35.711379","longitude":"139.669538","phone_number":"03-5318-3037","place_type":1}, {"name":"まいばすけっと上高田4丁目店","prefecture_id":13,"address":"中野区上高田4-16-1","address2":"サンクレールKII","latitude":"35.712259","longitude":"139.677687","phone_number":"03-5318-3327","place_type":1}, {"name":"まいばすけっと飯田橋店","prefecture_id":13,"address":"新宿区下宮比町3-2","address2":"飯田橋スクエアビル","latitude":"35.703176","longitude":"139.743229","phone_number":"03-5227-8035","place_type":1}, {"name":"まいばすけっと雷門2丁目店","prefecture_id":13,"address":"台東区雷門2-4-9","address2":"明祐ビル","latitude":"35.709272","longitude":"139.795767","phone_number":"03-5827-3788","place_type":1}, {"name":"まいばすけっと神谷2丁目店","prefecture_id":13,"address":"北区神谷2-12-1","address2":"SPAZIO-K","latitude":"35.770211","longitude":"139.730008","phone_number":"03-5249-3823","place_type":1}, {"name":"まいばすけっと上用賀1丁目店","prefecture_id":13,"address":"世田谷区上用賀1-26-14","address2":"愛馬事公苑","latitude":"35.634163","longitude":"139.632302","phone_number":"03-5491-5407","place_type":1}, {"name":"まいばすけっと亀有駅南店","prefecture_id":13,"address":"葛飾区亀有3-32-13","address2":"HF7第一ビル","latitude":"35.765333","longitude":"139.849675","phone_number":"03-5629-5467","place_type":1}, {"name":"まいばすけっと亀有3丁目店","prefecture_id":13,"address":"葛飾区亀有3-11-1","address2":"ミノサンハイツ","latitude":"35.763542","longitude":"139.847234","phone_number":"03-5629-6800","place_type":1}, {"name":"まいばすけっと亀有4丁目店","prefecture_id":13,"address":"葛飾区亀有4-27-1","address2":null,"latitude":"35.761973","longitude":"139.84231","phone_number":"03-5629-6822","place_type":1}, {"name":"まいばすけっと亀戸2丁目店","prefecture_id":13,"address":"江東区亀戸2-36-12","address2":"エスプリ亀戸","latitude":"35.700212","longitude":"139.825145","phone_number":"03-5627-6575","place_type":1}, {"name":"まいばすけっと亀戸松代橋店","prefecture_id":13,"address":"江東区亀戸1-43-7","address2":"コープ野村亀戸","latitude":"35.696606","longitude":"139.821462","phone_number":"03-5609-7018","place_type":1}, {"name":"まいばすけっと亀沢4丁目店","prefecture_id":13,"address":"墨田区亀沢4-25-15","address2":"コーポ第2波多野","latitude":"35.698428","longitude":"139.805405","phone_number":"03-5608-7672","place_type":1}, {"name":"まいばすけっと神田駅北口店","prefecture_id":13,"address":"千代田区神田多町2-1","address2":"神田東山ビル","latitude":"35.693209","longitude":"139.769336","phone_number":"03-5298-2627","place_type":1}]
